[
 {
  "label": "Abbigeri",
  "lat": 13.0767,
  "lng": 77.525,
  "country": "India",
  "State": "Karnataka",
  "value": "Abbigeri"
 },
 {
  "label": "Abbigeri",
  "lat": 15.5862,
  "lng": 75.7502,
  "country": "India",
  "State": "Karnataka",
  "value": "Abbigeri"
 },
 {
  "label": "Abdullahnagar",
  "lat": 25.7683,
  "lng": 87.5557,
  "country": "India",
  "State": "Bihar",
  "value": "Abdullahnagar"
 },
 {
  "label": "Abhayapuri",
  "lat": 26.3225,
  "lng": 90.6853,
  "country": "India",
  "State": "Assam",
  "value": "Abhayapuri"
 },
 {
  "label": "Abhia",
  "lat": 25.3499,
  "lng": 87.1427,
  "country": "India",
  "State": "Bihar",
  "value": "Abhia"
 },
 {
  "label": "Abhwar",
  "lat": 26.174,
  "lng": 86.6324,
  "country": "India",
  "State": "Bihar",
  "value": "Abhwar"
 },
 {
  "label": "Abiramam",
  "lat": 9.4423,
  "lng": 78.4399,
  "country": "India",
  "State": "Tamil Nadu",
  "value": "Abiramam"
 },
 {
  "label": "Ablu",
  "lat": 30.3391,
  "lng": 74.7879,
  "country": "India",
  "State": "Punjab",
  "value": "Ablu"
 },
 {
  "label": "Abohar",
  "lat": 30.1334,
  "lng": 74.2001,
  "country": "India",
  "State": "Punjab",
  "value": "Abohar"
 },
 {
  "label": "Abu",
  "lat": 24.5925,
  "lng": 72.7083,
  "country": "India",
  "State": "Rajasthan",
  "value": "Abu"
 },
 {
  "label": "Achaljamu",
  "lat": 24.0243,
  "lng": 85.8306,
  "country": "India",
  "State": "Jharkhand",
  "value": "Achaljamu"
 },
 {
  "label": "Achampet",
  "lat": 16.6299,
  "lng": 80.1213,
  "country": "India",
  "State": "Andhra Pradesh",
  "value": "Achampet"
 },
 {
  "label": "Achankovil",
  "lat": 8.9667,
  "lng": 77.1431,
  "country": "India",
  "State": "Kerala",
  "value": "Achankovil"
 },
 {
  "label": "Acharipallam",
  "lat": 8.17,
  "lng": 77.3698,
  "country": "India",
  "State": "Tamil Nadu",
  "value": "Acharipallam"
 },
 {
  "label": "Achchampeta",
  "lat": 17.0941,
  "lng": 82.3099,
  "country": "India",
  "State": "Andhra Pradesh",
  "value": "Achchampeta"
 },
 {
  "label": "Achchippatti",
  "lat": 10.6989,
  "lng": 77.015,
  "country": "India",
  "State": "Tamil Nadu",
  "value": "Achchippatti"
 },
 {
  "label": "Achhnera",
  "lat": 27.18,
  "lng": 77.77,
  "country": "India",
  "State": "Uttar Pradesh",
  "value": "Achhnera"
 },
 {
  "label": "Adalaj",
  "lat": 23.17,
  "lng": 72.58,
  "country": "India",
  "State": "Gujarat",
  "value": "Adalaj"
 },
 {
  "label": "Adalhat",
  "lat": 25.282,
  "lng": 82.9563,
  "country": "India",
  "State": "Uttar Pradesh",
  "value": "Adalhat"
 },
 {
  "label": "Adalpur",
  "lat": 26.191,
  "lng": 86.0239,
  "country": "India",
  "State": "Bihar",
  "value": "Adalpur"
 },
 {
  "label": "Adamankottai",
  "lat": 12.0742,
  "lng": 78.1237,
  "country": "India",
  "State": "Tamil Nadu",
  "value": "Adamankottai"
 },
 {
  "label": "adampur",
  "lat": 31.4322,
  "lng": 75.7148,
  "country": "India",
  "State": "Punjab",
  "value": "adampur"
 },
 {
  "label": "Addanki",
  "lat": 15.8167,
  "lng": 79.9833,
  "country": "India",
  "State": "Andhra Pradesh",
  "value": "Addanki"
 },
 {
  "label": "Adesar",
  "lat": 23.5589,
  "lng": 70.9833,
  "country": "India",
  "State": "Gujarat",
  "value": "Adesar"
 },
 {
  "label": "Adigappadi",
  "lat": 12.1459,
  "lng": 78.0946,
  "country": "India",
  "State": "Tamil Nadu",
  "value": "Adigappadi"
 },
 {
  "label": "Adigaratti",
  "lat": 11.3357,
  "lng": 76.6971,
  "country": "India",
  "State": "Tamil Nadu",
  "value": "Adigaratti"
 },
 {
  "label": "Adigoppula",
  "lat": 16.4402,
  "lng": 79.6235,
  "country": "India",
  "State": "Andhra Pradesh",
  "value": "Adigoppula"
 },
 {
  "label": "Adilabad",
  "lat": 19.6667,
  "lng": 78.5333,
  "country": "India",
  "State": "Telangana",
  "value": "Adilabad"
 },
 {
  "label": "adivala",
  "lat": 13.9131,
  "lng": 76.6619,
  "country": "India",
  "State": "Karnataka",
  "value": "adivala"
 },
 {
  "label": "Adiyakkamangalam",
  "lat": 10.7626,
  "lng": 79.6775,
  "country": "India",
  "State": "Tamil Nadu",
  "value": "Adiyakkamangalam"
 },
 {
  "label": "adoni",
  "lat": 15.6279,
  "lng": 77.2749,
  "country": "India",
  "State": "Andhra Pradesh",
  "value": "adoni"
 },
 {
  "label": "adra",
  "lat": 23.5,
  "lng": 86.67,
  "country": "India",
  "State": "West Bengal",
  "value": "adra"
 },
 {
  "label": "Adukam",
  "lat": 9.7954,
  "lng": 76.8456,
  "country": "India",
  "State": "Kerala",
  "value": "Adukam"
 },
 {
  "label": "aduru",
  "lat": 12.5583,
  "lng": 75.1357,
  "country": "India",
  "State": "Kerala",
  "value": "aduru"
 },
 {
  "label": "Advi Devalpalli",
  "lat": 16.6631,
  "lng": 79.5139,
  "country": "India",
  "State": "Telangana",
  "value": "Advi Devalpalli"
 },
 {
  "label": "Afzala",
  "lat": 25.9319,
  "lng": 86.2293,
  "country": "India",
  "State": "Bihar",
  "value": "Afzala"
 },
 {
  "label": "Afzalpur",
  "lat": 17.2011,
  "lng": 76.3611,
  "country": "India",
  "State": "Karnataka",
  "value": "Afzalpur"
 },
 {
  "label": "agadallanka",
  "lat": 16.7123,
  "lng": 81.2732,
  "country": "India",
  "State": "Andhra Pradesh",
  "value": "agadallanka"
 },
 {
  "label": "Agadi",
  "lat": 14.819,
  "lng": 75.469,
  "country": "India",
  "State": "Karnataka",
  "value": "Agadi"
 },
 {
  "label": "Agar",
  "lat": 23.7118,
  "lng": 76.0157,
  "country": "India",
  "State": "Madhya Pradesh",
  "value": "Agar"
 },
 {
  "label": "Agaram",
  "lat": 10.4433,
  "lng": 77.9485,
  "country": "India",
  "State": "Tamil Nadu",
  "value": "Agaram"
 },
 {
  "label": "Agarpur",
  "lat": 25.1957,
  "lng": 87.0423,
  "country": "India",
  "State": "Bihar",
  "value": "Agarpur"
 },
 {
  "label": "Agartala",
  "lat": 23.8314,
  "lng": 91.2869,
  "country": "India",
  "State": "Tripura",
  "value": "Agartala"
 },
 {
  "label": "Aginiparru",
  "lat": 16.6817,
  "lng": 80.7839,
  "country": "India",
  "State": "Andhra Pradesh",
  "value": "Aginiparru"
 },
 {
  "label": "agiripalle",
  "lat": 16.6833,
  "lng": 80.65,
  "country": "India",
  "State": "Andhra Pradesh",
  "value": "agiripalle"
 },
 {
  "label": "agra",
  "lat": 27.18,
  "lng": 78.02,
  "country": "India",
  "State": "Uttar Pradesh",
  "value": "agra"
 },
 {
  "label": "Ahirauliya",
  "lat": 26.5091,
  "lng": 84.7999,
  "country": "India",
  "State": "Bihar",
  "value": "Ahirauliya"
 },
 {
  "label": "ahiro",
  "lat": 24.9192,
  "lng": 87.1054,
  "country": "India",
  "State": "Bihar",
  "value": "ahiro"
 },
 {
  "label": "Ahmadabad",
  "lat": 25.3019,
  "lng": 87.7938,
  "country": "India",
  "State": "Bihar",
  "value": "Ahmadabad"
 },
 {
  "label": "Ahmadnagar",
  "lat": 19.08,
  "lng": 74.73,
  "country": "India",
  "State": "Maharashtra",
  "value": "Ahmadnagar"
 },
 {
  "label": "Ahmadpur",
  "lat": 18.7,
  "lng": 76.9333,
  "country": "India",
  "State": "Maharashtra",
  "value": "Ahmadpur"
 },
 {
  "label": "Ahmadpur",
  "lat": 23.8365,
  "lng": 87.6912,
  "country": "India",
  "State": "West Bengal",
  "value": "Ahmadpur"
 },
 {
  "label": "Ahmedabad",
  "lat": 23.0225,
  "lng": 72.5714,
  "country": "India",
  "State": "Gujarat",
  "value": "Ahmedabad"
 },
 {
  "label": "Ahor",
  "lat": 25.367,
  "lng": 72.783,
  "country": "India",
  "State": "Rajasthan",
  "value": "Ahor"
 },
 {
  "label": "Ahwa",
  "lat": 20.75,
  "lng": 73.6833,
  "country": "India",
  "State": "Gujarat",
  "value": "Ahwa"
 },
 {
  "label": "Aikaranad",
  "lat": 10.0002,
  "lng": 76.455,
  "country": "India",
  "State": "Kerala",
  "value": "Aikaranad"
 },
 {
  "label": "Ainapur",
  "lat": 16.48,
  "lng": 74.78,
  "country": "India",
  "State": "Karnataka",
  "value": "Ainapur"
 },
 {
  "label": "Aivanallur",
  "lat": 11.2161,
  "lng": 79.5392,
  "country": "India",
  "State": "Tamil Nadu",
  "value": "Aivanallur"
 },
 {
  "label": "Aiyampuzha",
  "lat": 10.25,
  "lng": 76.4667,
  "country": "India",
  "State": "Kerala",
  "value": "Aiyampuzha"
 },
 {
  "label": "Aiyappan Kovil",
  "lat": 9.7158,
  "lng": 77.0333,
  "country": "India",
  "State": "Kerala",
  "value": "Aiyappan Kovil"
 },
 {
  "label": "aizawl",
  "lat": 23.7272,
  "lng": 92.7178,
  "country": "India",
  "State": "Mizoram",
  "value": "aizawl"
 },
 {
  "label": "Ajaigarh",
  "lat": 24.8988,
  "lng": 80.2592,
  "country": "India",
  "State": "Madhya Pradesh",
  "value": "Ajaigarh"
 },
 {
  "label": "Ajas",
  "lat": 34.3316,
  "lng": 74.6801,
  "country": "India",
  "State": "Jammu and Kashmir",
  "value": "Ajas"
 },
 {
  "label": "Ajjampur",
  "lat": 13.7279,
  "lng": 76.0068,
  "country": "India",
  "State": "Karnataka",
  "value": "Ajjampur"
 },
 {
  "label": "Ajjanahalli",
  "lat": 12.0376,
  "lng": 77.8138,
  "country": "India",
  "State": "Tamil Nadu",
  "value": "Ajjanahalli"
 },
 {
  "label": "Ajjipuram",
  "lat": 12.0457,
  "lng": 77.3532,
  "country": "India",
  "State": "Karnataka",
  "value": "Ajjipuram"
 },
 {
  "label": "Ajmer",
  "lat": 26.4499,
  "lng": 74.6399,
  "country": "India",
  "State": "Rajasthan",
  "value": "Ajmer"
 },
 {
  "label": "Ajnala",
  "lat": 31.84,
  "lng": 74.76,
  "country": "India",
  "State": "Punjab",
  "value": "Ajnala"
 },
 {
  "label": "Ajodhya",
  "lat": 26.7992,
  "lng": 82.2044,
  "country": "India",
  "State": "Uttar Pradesh",
  "value": "Ajodhya"
 },
 {
  "label": "Akalapura",
  "lat": 13.4852,
  "lng": 77.4621,
  "country": "India",
  "State": "Karnataka",
  "value": "Akalapura"
 },
 {
  "label": "Akalgarh",
  "lat": 30.8019,
  "lng": 75.8582,
  "country": "India",
  "State": "Punjab",
  "value": "Akalgarh"
 },
 {
  "label": "Akambadam",
  "lat": 11.1,
  "lng": 76.3167,
  "country": "India",
  "State": "Kerala",
  "value": "Akambadam"
 },
 {
  "label": "Akanavaritota",
  "lat": 16.4141,
  "lng": 81.6367,
  "country": "India",
  "State": "Andhra Pradesh",
  "value": "Akanavaritota"
 },
 {
  "label": "Akbarpur",
  "lat": 26.4333,
  "lng": 82.5403,
  "country": "India",
  "State": "Uttar Pradesh",
  "value": "Akbarpur"
 },
 {
  "label": "Akbarpur",
  "lat": 24.6351,
  "lng": 83.9642,
  "country": "India",
  "State": "Bihar",
  "value": "Akbarpur"
 },
 {
  "label": "Akhnur",
  "lat": 32.87,
  "lng": 74.73,
  "country": "India",
  "State": "Jammu and Kashmir",
  "value": "Akhnur"
 },
 {
  "label": "Akividu",
  "lat": 16.5823,
  "lng": 81.3811,
  "country": "India",
  "State": "Andhra Pradesh",
  "value": "Akividu"
 },
 {
  "label": "Akkattettar",
  "lat": 10.8167,
  "lng": 76.65,
  "country": "India",
  "State": "Kerala",
  "value": "Akkattettar"
 },
 {
  "label": "Aklera",
  "lat": 24.42,
  "lng": 76.57,
  "country": "India",
  "State": "Rajasthan",
  "value": "Aklera"
 },
 {
  "label": "Aklvidu",
  "lat": 16.6,
  "lng": 81.3833,
  "country": "India",
  "State": "Andhra Pradesh",
  "value": "Aklvidu"
 },
 {
  "label": "Akola",
  "lat": 20.7,
  "lng": 77,
  "country": "India",
  "State": "Maharashtra",
  "value": "Akola"
 },
 {
  "label": "Akola",
  "lat": 27.0656,
  "lng": 77.8808,
  "country": "India",
  "State": "Uttar Pradesh",
  "value": "Akola"
 },
 {
  "label": "Akora",
  "lat": 26.4721,
  "lng": 78.7989,
  "country": "India",
  "State": "Madhya Pradesh",
  "value": "Akora"
 },
 {
  "label": "Akot",
  "lat": 21.1,
  "lng": 77.06,
  "country": "India",
  "State": "Maharashtra",
  "value": "Akot"
 },
 {
  "label": "Alagappapuram",
  "lat": 8.1468,
  "lng": 77.5413,
  "country": "India",
  "State": "Tamil Nadu",
  "value": "Alagappapuram"
 },
 {
  "label": "Alagarai",
  "lat": 10.9826,
  "lng": 78.3891,
  "country": "India",
  "State": "Tamil Nadu",
  "value": "Alagarai"
 },
 {
  "label": "Alamadi",
  "lat": 13.1097,
  "lng": 80.0972,
  "country": "India",
  "State": "Tamil Nadu",
  "value": "Alamadi"
 },
 {
  "label": "Alamnagar",
  "lat": 25.561,
  "lng": 86.9014,
  "country": "India",
  "State": "Bihar",
  "value": "Alamnagar"
 },
 {
  "label": "alampalaiyam",
  "lat": 11.3635,
  "lng": 77.7677,
  "country": "India",
  "State": "Tamil Nadu",
  "value": "alampalaiyam"
 },
 {
  "label": "Alampur",
  "lat": 26.0251,
  "lng": 78.797,
  "country": "India",
  "State": "Madhya Pradesh",
  "value": "Alampur"
 },
 {
  "label": "alampur",
  "lat": 15.8793,
  "lng": 78.1334,
  "country": "India",
  "State": "Telangana",
  "value": "alampur"
 },
 {
  "label": "alampur",
  "lat": 24.8721,
  "lng": 83.8829,
  "country": "India",
  "State": "Bihar",
  "value": "alampur"
 },
 {
  "label": "alampur Gonpura",
  "lat": 25.5404,
  "lng": 85.0511,
  "country": "India",
  "State": "Bihar",
  "value": "alampur Gonpura"
 },
 {
  "label": "alamuru",
  "lat": 16.7833,
  "lng": 81.9,
  "country": "India",
  "State": "Andhra Pradesh",
  "value": "alamuru"
 },
 {
  "label": "Aland",
  "lat": 17.5642,
  "lng": 76.5685,
  "country": "India",
  "State": "Karnataka",
  "value": "Aland"
 },
 {
  "label": "Alandatte",
  "lat": 12.191,
  "lng": 75.4673,
  "country": "India",
  "State": "Kerala",
  "value": "Alandatte"
 },
 {
  "label": "Alanganallur",
  "lat": 10.047,
  "lng": 78.0903,
  "country": "India",
  "State": "Tamil Nadu",
  "value": "Alanganallur"
 },
 {
  "label": "Alangayam",
  "lat": 12.6223,
  "lng": 78.7521,
  "country": "India",
  "State": "Tamil Nadu",
  "value": "Alangayam"
 },
 {
  "label": "alangudi",
  "lat": 10.3604,
  "lng": 78.9779,
  "country": "India",
  "State": "Tamil Nadu",
  "value": "alangudi"
 },
 {
  "label": "alangulam",
  "lat": 8.864,
  "lng": 77.4994,
  "country": "India",
  "State": "Tamil Nadu",
  "value": "alangulam"
 },
 {
  "label": "Alasandigutta",
  "lat": 15.6244,
  "lng": 77.2731,
  "country": "India",
  "State": "Andhra Pradesh",
  "value": "Alasandigutta"
 },
 {
  "label": "Alattur",
  "lat": 10.6481,
  "lng": 76.5383,
  "country": "India",
  "State": "Kerala",
  "value": "Alattur"
 },
 {
  "label": "Alauli",
  "lat": 25.644,
  "lng": 86.4065,
  "country": "India",
  "State": "Bihar",
  "value": "Alauli"
 },
 {
  "label": "Alawalpur",
  "lat": 31.4316,
  "lng": 75.6561,
  "country": "India",
  "State": "Punjab",
  "value": "Alawalpur"
 },
 {
  "label": "Alawandi",
  "lat": 15.2303,
  "lng": 75.9801,
  "country": "India",
  "State": "Karnataka",
  "value": "Alawandi"
 },
 {
  "label": "Alayaman",
  "lat": 8.8843,
  "lng": 76.9653,
  "country": "India",
  "State": "Kerala",
  "value": "Alayaman"
 },
 {
  "label": "Alengad",
  "lat": 10.1,
  "lng": 76.3,
  "country": "India",
  "State": "Kerala",
  "value": "Alengad"
 },
 {
  "label": "Alewah",
  "lat": 29.4767,
  "lng": 76.4522,
  "country": "India",
  "State": "Haryana",
  "value": "Alewah"
 },
 {
  "label": "Algun",
  "lat": 31.2795,
  "lng": 74.6517,
  "country": "India",
  "State": "Punjab",
  "value": "Algun"
 },
 {
  "label": "Aliganj",
  "lat": 24.9365,
  "lng": 85.925,
  "country": "India",
  "State": "Bihar",
  "value": "Aliganj"
 },
 {
  "label": "Aligarh",
  "lat": 27.88,
  "lng": 78.08,
  "country": "India",
  "State": "Uttar Pradesh",
  "value": "Aligarh"
 },
 {
  "label": "Alipur",
  "lat": 18.8621,
  "lng": 78.8754,
  "country": "India",
  "State": "Telangana",
  "value": "Alipur"
 },
 {
  "label": "Alipur Duar",
  "lat": 26.489,
  "lng": 89.527,
  "country": "India",
  "State": "West Bengal",
  "value": "Alipur Duar"
 },
 {
  "label": "Aliyabad",
  "lat": 12.6317,
  "lng": 79.2164,
  "country": "India",
  "State": "Tamil Nadu",
  "value": "Aliyabad"
 },
 {
  "label": "allagadda",
  "lat": 15.1322,
  "lng": 78.5138,
  "country": "India",
  "State": "Andhra Pradesh",
  "value": "allagadda"
 },
 {
  "label": "Allahdurg",
  "lat": 17.9667,
  "lng": 77.9167,
  "country": "India",
  "State": "Telangana",
  "value": "Allahdurg"
 },
 {
  "label": "Allahpur",
  "lat": 26.3434,
  "lng": 77.8195,
  "country": "India",
  "State": "Madhya Pradesh",
  "value": "Allahpur"
 },
 {
  "label": "Alleppey",
  "lat": 9.49,
  "lng": 76.33,
  "country": "India",
  "State": "Kerala",
  "value": "Alleppey"
 },
 {
  "label": "Allinagaram",
  "lat": 10.0119,
  "lng": 77.4786,
  "country": "India",
  "State": "Tamil Nadu",
  "value": "Allinagaram"
 },
 {
  "label": "Allur",
  "lat": 14.68,
  "lng": 80.06,
  "country": "India",
  "State": "Andhra Pradesh",
  "value": "Allur"
 },
 {
  "label": "Alluru",
  "lat": 15.1336,
  "lng": 78.4975,
  "country": "India",
  "State": "Andhra Pradesh",
  "value": "Alluru"
 },
 {
  "label": "Almel",
  "lat": 16.92,
  "lng": 76.24,
  "country": "India",
  "State": "Karnataka",
  "value": "Almel"
 },
 {
  "label": "Almora",
  "lat": 29.5971,
  "lng": 79.6591,
  "country": "India",
  "State": "Uttarakhand",
  "value": "Almora"
 },
 {
  "label": "Alnavar",
  "lat": 15.4273,
  "lng": 74.7411,
  "country": "India",
  "State": "Karnataka",
  "value": "Alnavar"
 },
 {
  "label": "Alta",
  "lat": 17.25,
  "lng": 74.57,
  "country": "India",
  "State": "Maharashtra",
  "value": "Alta"
 },
 {
  "label": "Alukkuli",
  "lat": 11.4458,
  "lng": 77.3574,
  "country": "India",
  "State": "Tamil Nadu",
  "value": "Alukkuli"
 },
 {
  "label": "Alur",
  "lat": 15.3942,
  "lng": 77.2264,
  "country": "India",
  "State": "Andhra Pradesh",
  "value": "Alur"
 },
 {
  "label": "Alwa Tirunagari",
  "lat": 8.61,
  "lng": 77.94,
  "country": "India",
  "State": "Tamil Nadu",
  "value": "Alwa Tirunagari"
 },
 {
  "label": "Alwal",
  "lat": 17.5047,
  "lng": 78.5038,
  "country": "India",
  "State": "Telangana",
  "value": "Alwal"
 },
 {
  "label": "Alwar",
  "lat": 27.5498,
  "lng": 76.6355,
  "country": "India",
  "State": "Rajasthan",
  "value": "Alwar"
 },
 {
  "label": "alwarkurichchi",
  "lat": 8.7838,
  "lng": 77.3952,
  "country": "India",
  "State": "Tamil Nadu",
  "value": "alwarkurichchi"
 },
 {
  "label": "Alwaye",
  "lat": 10.1167,
  "lng": 76.35,
  "country": "India",
  "State": "Kerala",
  "value": "Alwaye"
 },
 {
  "label": "Amaha",
  "lat": 26.1284,
  "lng": 86.7998,
  "country": "India",
  "State": "Bihar",
  "value": "Amaha"
 },
 {
  "label": "Amala",
  "lat": 9.859,
  "lng": 76.8112,
  "country": "India",
  "State": "Kerala",
  "value": "Amala"
 },
 {
  "label": "Amalapuram",
  "lat": 16.5787,
  "lng": 82.0061,
  "country": "India",
  "State": "Andhra Pradesh",
  "value": "Amalapuram"
 },
 {
  "label": "Amalner",
  "lat": 21.05,
  "lng": 75.05,
  "country": "India",
  "State": "Maharashtra",
  "value": "Amalner"
 },
 {
  "label": "amangal",
  "lat": 16.8499,
  "lng": 78.5327,
  "country": "India",
  "State": "Telangana",
  "value": "amangal"
 },
 {
  "label": "Amanganj",
  "lat": 24.4266,
  "lng": 80.0358,
  "country": "India",
  "State": "Madhya Pradesh",
  "value": "Amanganj"
 },
 {
  "label": "Amarapuuram",
  "lat": 14.1333,
  "lng": 76.9833,
  "country": "India",
  "State": "Karnataka",
  "value": "Amarapuuram"
 },
 {
  "label": "Amaravati",
  "lat": 16.5131,
  "lng": 80.5165,
  "country": "India",
  "State": "Andhra Pradesh",
  "value": "Amaravati"
 },
 {
  "label": "Amaravati",
  "lat": 16.573,
  "lng": 80.358,
  "country": "India",
  "State": "Andhra Pradesh",
  "value": "Amaravati"
 },
 {
  "label": "Amarchinta",
  "lat": 16.374,
  "lng": 77.7729,
  "country": "India",
  "State": "Telangana",
  "value": "Amarchinta"
 },
 {
  "label": "Amari",
  "lat": 25.7179,
  "lng": 86.0839,
  "country": "India",
  "State": "Bihar",
  "value": "Amari"
 },
 {
  "label": "Amarpatan",
  "lat": 24.3137,
  "lng": 80.977,
  "country": "India",
  "State": "Madhya Pradesh",
  "value": "Amarpatan"
 },
 {
  "label": "Amarpur",
  "lat": 25.0397,
  "lng": 86.9025,
  "country": "India",
  "State": "Bihar",
  "value": "Amarpur"
 },
 {
  "label": "Amarpur",
  "lat": 23.53,
  "lng": 91.64,
  "country": "India",
  "State": "Tripura",
  "value": "Amarpur"
 },
 {
  "label": "Amarpura",
  "lat": 26.3667,
  "lng": 73.9833,
  "country": "India",
  "State": "Rajasthan",
  "value": "Amarpura"
 },
 {
  "label": "Amarwa Khurd",
  "lat": 26.8333,
  "lng": 84.25,
  "country": "India",
  "State": "Uttar Pradesh",
  "value": "Amarwa Khurd"
 },
 {
  "label": "Amarwara",
  "lat": 22.2978,
  "lng": 79.1694,
  "country": "India",
  "State": "Madhya Pradesh",
  "value": "Amarwara"
 },
 {
  "label": "Amauna",
  "lat": 25.0531,
  "lng": 84.5169,
  "country": "India",
  "State": "Bihar",
  "value": "Amauna"
 },
 {
  "label": "Amayan",
  "lat": 26.3205,
  "lng": 78.7581,
  "country": "India",
  "State": "Madhya Pradesh",
  "value": "Amayan"
 },
 {
  "label": "Amba Icharua",
  "lat": 25.614,
  "lng": 86.4258,
  "country": "India",
  "State": "Bihar",
  "value": "Amba Icharua"
 },
 {
  "label": "Ambajogai",
  "lat": 18.73,
  "lng": 76.38,
  "country": "India",
  "State": "Maharashtra",
  "value": "Ambajogai"
 },
 {
  "label": "Ambala",
  "lat": 30.38,
  "lng": 76.78,
  "country": "India",
  "State": "Haryana",
  "value": "Ambala"
 },
 {
  "label": "Ambala",
  "lat": 17.65,
  "lng": 79.05,
  "country": "India",
  "State": "Telangana",
  "value": "Ambala"
 },
 {
  "label": "Ambalanur",
  "lat": 16.59,
  "lng": 75.96,
  "country": "India",
  "State": "Karnataka",
  "value": "Ambalanur"
 },
 {
  "label": "Ambalavayal",
  "lat": 11.619,
  "lng": 76.2102,
  "country": "India",
  "State": "Tamil Nadu",
  "value": "Ambalavayal"
 },
 {
  "label": "Ambara",
  "lat": 22.1902,
  "lng": 78.6708,
  "country": "India",
  "State": "Madhya Pradesh",
  "value": "Ambara"
 },
 {
  "label": "Ambasamudram",
  "lat": 8.7037,
  "lng": 77.4527,
  "country": "India",
  "State": "Tamil Nadu",
  "value": "Ambasamudram"
 },
 {
  "label": "Ambattur",
  "lat": 13.1143,
  "lng": 80.1548,
  "country": "India",
  "State": "Tamil Nadu",
  "value": "Ambattur"
 },
 {
  "label": "Ambatturai",
  "lat": 10.2603,
  "lng": 77.9303,
  "country": "India",
  "State": "Tamil Nadu",
  "value": "Ambatturai"
 },
 {
  "label": "Ambhua",
  "lat": 24.5568,
  "lng": 87.8651,
  "country": "India",
  "State": "West Bengal",
  "value": "Ambhua"
 },
 {
  "label": "Ambikapur",
  "lat": 23.12,
  "lng": 83.2,
  "country": "India",
  "State": "Chhattisgarh",
  "value": "Ambikapur"
 },
 {
  "label": "Amgachia",
  "lat": 22.4156,
  "lng": 88.3051,
  "country": "India",
  "State": "West Bengal",
  "value": "Amgachia"
 },
 {
  "label": "Amha",
  "lat": 26.0518,
  "lng": 86.6906,
  "country": "India",
  "State": "Bihar",
  "value": "Amha"
 },
 {
  "label": "Amiawar",
  "lat": 25.0405,
  "lng": 84.3096,
  "country": "India",
  "State": "Bihar",
  "value": "Amiawar"
 },
 {
  "label": "Amingaon",
  "lat": 26.23,
  "lng": 91.67,
  "country": "India",
  "State": "Assam",
  "value": "Amingaon"
 },
 {
  "label": "Amingarh",
  "lat": 16.0572,
  "lng": 75.9489,
  "country": "India",
  "State": "Karnataka",
  "value": "Amingarh"
 },
 {
  "label": "Aminpur",
  "lat": 17.5241,
  "lng": 78.3242,
  "country": "India",
  "State": "Telangana",
  "value": "Aminpur"
 },
 {
  "label": "Amjhar",
  "lat": 25.0641,
  "lng": 84.5591,
  "country": "India",
  "State": "Bihar",
  "value": "Amjhar"
 },
 {
  "label": "Amjhera",
  "lat": 22.5578,
  "lng": 75.1185,
  "country": "India",
  "State": "Madhya Pradesh",
  "value": "Amjhera"
 },
 {
  "label": "Amla",
  "lat": 21.9248,
  "lng": 78.1279,
  "country": "India",
  "State": "Madhya Pradesh",
  "value": "Amla"
 },
 {
  "label": "Ammanabrolu",
  "lat": 15.5802,
  "lng": 80.1488,
  "country": "India",
  "State": "Andhra Pradesh",
  "value": "Ammanabrolu"
 },
 {
  "label": "Ammapettai",
  "lat": 10.7948,
  "lng": 79.3199,
  "country": "India",
  "State": "Tamil Nadu",
  "value": "Ammapettai"
 },
 {
  "label": "Ammapettai",
  "lat": 11.6197,
  "lng": 77.7426,
  "country": "India",
  "State": "Tamil Nadu",
  "value": "Ammapettai"
 },
 {
  "label": "Ammavarikuppam",
  "lat": 13.1784,
  "lng": 79.4169,
  "country": "India",
  "State": "Tamil Nadu",
  "value": "Ammavarikuppam"
 },
 {
  "label": "Ammur",
  "lat": 12.975,
  "lng": 79.3628,
  "country": "India",
  "State": "Tamil Nadu",
  "value": "Ammur"
 },
 {
  "label": "amodei",
  "lat": 26.8975,
  "lng": 84.8182,
  "country": "India",
  "State": "Bihar",
  "value": "amodei"
 },
 {
  "label": "Amrabad",
  "lat": 16.3833,
  "lng": 78.8333,
  "country": "India",
  "State": "Telangana",
  "value": "Amrabad"
 },
 {
  "label": "Amravati",
  "lat": 20.9258,
  "lng": 77.7647,
  "country": "India",
  "State": "Maharashtra",
  "value": "Amravati"
 },
 {
  "label": "Amreli",
  "lat": 21.6006,
  "lng": 71.2164,
  "country": "India",
  "State": "Gujarat",
  "value": "Amreli"
 },
 {
  "label": "Amritsar",
  "lat": 31.64,
  "lng": 74.86,
  "country": "India",
  "State": "Punjab",
  "value": "Amritsar"
 },
 {
  "label": "Amroha",
  "lat": 28.9044,
  "lng": 78.4675,
  "country": "India",
  "State": "Uttar Pradesh",
  "value": "Amroha"
 },
 {
  "label": "Amsin",
  "lat": 26.5733,
  "lng": 82.4357,
  "country": "India",
  "State": "Uttar Pradesh",
  "value": "Amsin"
 },
 {
  "label": "amta",
  "lat": 22.5834,
  "lng": 88.0104,
  "country": "India",
  "State": "West Bengal",
  "value": "amta"
 },
 {
  "label": "Amtala",
  "lat": 26.1,
  "lng": 91.39,
  "country": "India",
  "State": "Assam",
  "value": "Amtala"
 },
 {
  "label": "Amtala",
  "lat": 22.3669,
  "lng": 88.2777,
  "country": "India",
  "State": "West Bengal",
  "value": "Amtala"
 },
 {
  "label": "amudalapalle",
  "lat": 15.9301,
  "lng": 80.6899,
  "country": "India",
  "State": "Andhra Pradesh",
  "value": "amudalapalle"
 },
 {
  "label": "Amudalavalasa",
  "lat": 18.4167,
  "lng": 83.9,
  "country": "India",
  "State": "Andhra Pradesh",
  "value": "Amudalavalasa"
 },
 {
  "label": "Amwa Majhar",
  "lat": 26.7362,
  "lng": 84.5818,
  "country": "India",
  "State": "Bihar",
  "value": "Amwa Majhar"
 },
 {
  "label": "Anaikal",
  "lat": 9.6003,
  "lng": 76.6846,
  "country": "India",
  "State": "Kerala",
  "value": "Anaikal"
 },
 {
  "label": "anaiyur",
  "lat": 9.9615,
  "lng": 78.1118,
  "country": "India",
  "State": "Tamil Nadu",
  "value": "anaiyur"
 },
 {
  "label": "Anakapalle",
  "lat": 17.6913,
  "lng": 83.0039,
  "country": "India",
  "State": "Andhra Pradesh",
  "value": "Anakapalle"
 },
 {
  "label": "Anakaputtur",
  "lat": 12.9823,
  "lng": 80.1282,
  "country": "India",
  "State": "Tamil Nadu",
  "value": "Anakaputtur"
 },
 {
  "label": "Anamalais",
  "lat": 10.583,
  "lng": 76.9344,
  "country": "India",
  "State": "Tamil Nadu",
  "value": "Anamalais"
 },
 {
  "label": "anand",
  "lat": 22.556,
  "lng": 72.951,
  "country": "India",
  "State": "Gujarat",
  "value": "anand"
 },
 {
  "label": "Anandapuram",
  "lat": 11.09,
  "lng": 76.9422,
  "country": "India",
  "State": "Tamil Nadu",
  "value": "Anandapuram"
 },
 {
  "label": "Anandnagar",
  "lat": 27.1,
  "lng": 83.2833,
  "country": "India",
  "State": "Uttar Pradesh",
  "value": "Anandnagar"
 },
 {
  "label": "Anandpur",
  "lat": 21.2141,
  "lng": 86.1249,
  "country": "India",
  "State": "Odisha",
  "value": "Anandpur"
 },
 {
  "label": "Anandpur",
  "lat": 31.2393,
  "lng": 76.5025,
  "country": "India",
  "State": "Punjab",
  "value": "Anandpur"
 },
 {
  "label": "anandpur",
  "lat": 25.6192,
  "lng": 84.8673,
  "country": "India",
  "State": "Bihar",
  "value": "anandpur"
 },
 {
  "label": "Ananipalle",
  "lat": 13.4902,
  "lng": 79.2895,
  "country": "India",
  "State": "Andhra Pradesh",
  "value": "Ananipalle"
 },
 {
  "label": "Anantapalle",
  "lat": 16.9767,
  "lng": 81.4442,
  "country": "India",
  "State": "Andhra Pradesh",
  "value": "Anantapalle"
 },
 {
  "label": "Anantapur",
  "lat": 14.68,
  "lng": 77.599,
  "country": "India",
  "State": "Andhra Pradesh",
  "value": "Anantapur"
 },
 {
  "label": "Anantarazupeta",
  "lat": 14.0014,
  "lng": 79.3319,
  "country": "India",
  "State": "Andhra Pradesh",
  "value": "Anantarazupeta"
 },
 {
  "label": "Anantasagaram",
  "lat": 14.5833,
  "lng": 79.4167,
  "country": "India",
  "State": "Andhra Pradesh",
  "value": "Anantasagaram"
 },
 {
  "label": "Anantavur",
  "lat": 10.8925,
  "lng": 75.9983,
  "country": "India",
  "State": "Kerala",
  "value": "Anantavur"
 },
 {
  "label": "Anantpur",
  "lat": 16.889,
  "lng": 75.0146,
  "country": "India",
  "State": "Karnataka",
  "value": "Anantpur"
 },
 {
  "label": "anavatti",
  "lat": 14.5645,
  "lng": 75.1523,
  "country": "India",
  "State": "Karnataka",
  "value": "anavatti"
 },
 {
  "label": "Andal",
  "lat": 23.6,
  "lng": 87.2,
  "country": "India",
  "State": "West Bengal",
  "value": "Andal"
 },
 {
  "label": "Andanappettai",
  "lat": 10.7498,
  "lng": 79.8226,
  "country": "India",
  "State": "Tamil Nadu",
  "value": "Andanappettai"
 },
 {
  "label": "Andhana",
  "lat": 25.2574,
  "lng": 85.4548,
  "country": "India",
  "State": "Bihar",
  "value": "Andhana"
 },
 {
  "label": "Andhra Tharhi",
  "lat": 26.3771,
  "lng": 86.3341,
  "country": "India",
  "State": "Bihar",
  "value": "Andhra Tharhi"
 },
 {
  "label": "andipalaiyam",
  "lat": 11.092,
  "lng": 77.315,
  "country": "India",
  "State": "Tamil Nadu",
  "value": "andipalaiyam"
 },
 {
  "label": "andippatti",
  "lat": 9.998,
  "lng": 77.621,
  "country": "India",
  "State": "Tamil Nadu",
  "value": "andippatti"
 },
 {
  "label": "Andiyappanur",
  "lat": 12.5342,
  "lng": 78.7024,
  "country": "India",
  "State": "Tamil Nadu",
  "value": "Andiyappanur"
 },
 {
  "label": "Andurkonam",
  "lat": 8.5969,
  "lng": 76.8664,
  "country": "India",
  "State": "Kerala",
  "value": "Andurkonam"
 },
 {
  "label": "Anekal",
  "lat": 12.7105,
  "lng": 77.6967,
  "country": "India",
  "State": "Karnataka",
  "value": "Anekal"
 },
 {
  "label": "Angadikkal Tekkekara",
  "lat": 9.2063,
  "lng": 76.7835,
  "country": "India",
  "State": "Kerala",
  "value": "Angadikkal Tekkekara"
 },
 {
  "label": "Angalakuduru Malepalle",
  "lat": 16.2392,
  "lng": 80.6117,
  "country": "India",
  "State": "Andhra Pradesh",
  "value": "Angalakuduru Malepalle"
 },
 {
  "label": "Angalakurichchi",
  "lat": 10.5282,
  "lng": 76.9962,
  "country": "India",
  "State": "Tamil Nadu",
  "value": "Angalakurichchi"
 },
 {
  "label": "Angallu",
  "lat": 13.6287,
  "lng": 78.4857,
  "country": "India",
  "State": "Andhra Pradesh",
  "value": "Angallu"
 },
 {
  "label": "Angamali",
  "lat": 10.196,
  "lng": 76.386,
  "country": "India",
  "State": "Kerala",
  "value": "Angamali"
 },
 {
  "label": "Anghad",
  "lat": 22.3913,
  "lng": 72.9946,
  "country": "India",
  "State": "Gujarat",
  "value": "Anghad"
 },
 {
  "label": "Angichettippalaiyam",
  "lat": 11.7742,
  "lng": 79.5255,
  "country": "India",
  "State": "Tamil Nadu",
  "value": "Angichettippalaiyam"
 },
 {
  "label": "Angul",
  "lat": 20.8381,
  "lng": 85.0956,
  "country": "India",
  "State": "Odisha",
  "value": "Angul"
 },
 {
  "label": "Angwali",
  "lat": 23.7317,
  "lng": 85.9858,
  "country": "India",
  "State": "Jharkhand",
  "value": "Angwali"
 },
 {
  "label": "Anjad",
  "lat": 22.0417,
  "lng": 75.0552,
  "country": "India",
  "State": "Madhya Pradesh",
  "value": "Anjad"
 },
 {
  "label": "Anjangaon",
  "lat": 21.15,
  "lng": 77.28,
  "country": "India",
  "State": "Maharashtra",
  "value": "Anjangaon"
 },
 {
  "label": "Anjarkandi",
  "lat": 11.8822,
  "lng": 75.5097,
  "country": "India",
  "State": "Kerala",
  "value": "Anjarkandi"
 },
 {
  "label": "Anjhalli",
  "lat": 12.1395,
  "lng": 77.9808,
  "country": "India",
  "State": "Tamil Nadu",
  "value": "Anjhalli"
 },
 {
  "label": "anjukulippatti",
  "lat": 10.2444,
  "lng": 78.0794,
  "country": "India",
  "State": "Tamil Nadu",
  "value": "anjukulippatti"
 },
 {
  "label": "Anjuna",
  "lat": 15.5833,
  "lng": 73.7333,
  "country": "India",
  "State": "Goa",
  "value": "Anjuna"
 },
 {
  "label": "Anjur",
  "lat": 10.5992,
  "lng": 76.1553,
  "country": "India",
  "State": "Kerala",
  "value": "Anjur"
 },
 {
  "label": "Ankalgi",
  "lat": 16.0333,
  "lng": 74.7,
  "country": "India",
  "State": "Karnataka",
  "value": "Ankalgi"
 },
 {
  "label": "Ankireddikuntapalem",
  "lat": 15.9154,
  "lng": 80.2108,
  "country": "India",
  "State": "Andhra Pradesh",
  "value": "Ankireddikuntapalem"
 },
 {
  "label": "Ankli",
  "lat": 16.42,
  "lng": 74.58,
  "country": "India",
  "State": "Karnataka",
  "value": "Ankli"
 },
 {
  "label": "Ankola",
  "lat": 14.6605,
  "lng": 74.3047,
  "country": "India",
  "State": "Karnataka",
  "value": "Ankola"
 },
 {
  "label": "Annakattumula",
  "lat": 9.8575,
  "lng": 76.4009,
  "country": "India",
  "State": "Kerala",
  "value": "Annakattumula"
 },
 {
  "label": "Annakunnu",
  "lat": 11.7463,
  "lng": 76.0415,
  "country": "India",
  "State": "Kerala",
  "value": "Annakunnu"
 },
 {
  "label": "Annamalainagar",
  "lat": 11.4,
  "lng": 79.7333,
  "country": "India",
  "State": "Tamil Nadu",
  "value": "Annamalainagar"
 },
 {
  "label": "Annaram",
  "lat": 16.784,
  "lng": 79.302,
  "country": "India",
  "State": "Telangana",
  "value": "Annaram"
 },
 {
  "label": "Anndevarapeta",
  "lat": 17.0937,
  "lng": 81.5799,
  "country": "India",
  "State": "Andhra Pradesh",
  "value": "Anndevarapeta"
 },
 {
  "label": "Annigeri",
  "lat": 15.4251,
  "lng": 75.4335,
  "country": "India",
  "State": "Karnataka",
  "value": "Annigeri"
 },
 {
  "label": "Annur",
  "lat": 11.2325,
  "lng": 77.1069,
  "country": "India",
  "State": "Tamil Nadu",
  "value": "Annur"
 },
 {
  "label": "Antardipa",
  "lat": 24.6442,
  "lng": 87.9213,
  "country": "India",
  "State": "West Bengal",
  "value": "Antardipa"
 },
 {
  "label": "Antargangi",
  "lat": 17.17,
  "lng": 75.96,
  "country": "India",
  "State": "Karnataka",
  "value": "Antargangi"
 },
 {
  "label": "Antarvedi",
  "lat": 16.3333,
  "lng": 81.7333,
  "country": "India",
  "State": "Andhra Pradesh",
  "value": "Antarvedi"
 },
 {
  "label": "Antarvedipalem",
  "lat": 16.3319,
  "lng": 81.732,
  "country": "India",
  "State": "Andhra Pradesh",
  "value": "Antarvedipalem"
 },
 {
  "label": "Antri",
  "lat": 26.0581,
  "lng": 78.21,
  "country": "India",
  "State": "Madhya Pradesh",
  "value": "Antri"
 },
 {
  "label": "Antur",
  "lat": 11.987,
  "lng": 75.376,
  "country": "India",
  "State": "Kerala",
  "value": "Antur"
 },
 {
  "label": "Anuppampattu",
  "lat": 13.3018,
  "lng": 80.2258,
  "country": "India",
  "State": "Tamil Nadu",
  "value": "Anuppampattu"
 },
 {
  "label": "Anuppur",
  "lat": 23.1034,
  "lng": 81.6908,
  "country": "India",
  "State": "Madhya Pradesh",
  "value": "Anuppur"
 },
 {
  "label": "Anupshahr",
  "lat": 28.37,
  "lng": 78.27,
  "country": "India",
  "State": "Uttar Pradesh",
  "value": "Anupshahr"
 },
 {
  "label": "Aphaur",
  "lat": 25.8828,
  "lng": 84.7595,
  "country": "India",
  "State": "Bihar",
  "value": "Aphaur"
 },
 {
  "label": "Apparaopeta",
  "lat": 16.8987,
  "lng": 81.5684,
  "country": "India",
  "State": "Andhra Pradesh",
  "value": "Apparaopeta"
 },
 {
  "label": "appukkudal",
  "lat": 11.4684,
  "lng": 77.5766,
  "country": "India",
  "State": "Tamil Nadu",
  "value": "appukkudal"
 },
 {
  "label": "Arachchalur",
  "lat": 11.1627,
  "lng": 77.7007,
  "country": "India",
  "State": "Tamil Nadu",
  "value": "Arachchalur"
 },
 {
  "label": "Arajpur",
  "lat": 25.5197,
  "lng": 87.0808,
  "country": "India",
  "State": "Bihar",
  "value": "Arajpur"
 },
 {
  "label": "Arakere",
  "lat": 12.4133,
  "lng": 76.8168,
  "country": "India",
  "State": "Karnataka",
  "value": "Arakere"
 },
 {
  "label": "Arakkal",
  "lat": 8.948,
  "lng": 76.8631,
  "country": "India",
  "State": "Kerala",
  "value": "Arakkal"
 },
 {
  "label": "Arakkapadi",
  "lat": 10.0599,
  "lng": 76.4592,
  "country": "India",
  "State": "Kerala",
  "value": "Arakkapadi"
 },
 {
  "label": "Aralam",
  "lat": 11.9992,
  "lng": 75.764,
  "country": "India",
  "State": "Kerala",
  "value": "Aralam"
 },
 {
  "label": "Aramangalam",
  "lat": 11.5843,
  "lng": 76.0001,
  "country": "India",
  "State": "Kerala",
  "value": "Aramangalam"
 },
 {
  "label": "Arambagh",
  "lat": 22.88,
  "lng": 87.78,
  "country": "India",
  "State": "West Bengal",
  "value": "Arambagh"
 },
 {
  "label": "arambakkam",
  "lat": 13.5258,
  "lng": 80.071,
  "country": "India",
  "State": "Andhra Pradesh",
  "value": "arambakkam"
 },
 {
  "label": "Aranda",
  "lat": 26.085,
  "lng": 84.3601,
  "country": "India",
  "State": "Bihar",
  "value": "Aranda"
 },
 {
  "label": "Arani",
  "lat": 13.3346,
  "lng": 80.0848,
  "country": "India",
  "State": "Tamil Nadu",
  "value": "Arani"
 },
 {
  "label": "Arantangi",
  "lat": 10.1686,
  "lng": 78.992,
  "country": "India",
  "State": "Tamil Nadu",
  "value": "Arantangi"
 },
 {
  "label": "Aranya Kalan",
  "lat": 23.2448,
  "lng": 76.7435,
  "country": "India",
  "State": "Madhya Pradesh",
  "value": "Aranya Kalan"
 },
 {
  "label": "Araria",
  "lat": 26.15,
  "lng": 87.52,
  "country": "India",
  "State": "Bihar",
  "value": "Araria"
 },
 {
  "label": "Arasur",
  "lat": 11.0866,
  "lng": 77.1146,
  "country": "India",
  "State": "Tamil Nadu",
  "value": "Arasur"
 },
 {
  "label": "Aravakkurichchi",
  "lat": 10.776,
  "lng": 77.9076,
  "country": "India",
  "State": "Tamil Nadu",
  "value": "Aravakkurichchi"
 },
 {
  "label": "Aravankara",
  "lat": 11.0745,
  "lng": 75.9369,
  "country": "India",
  "State": "Kerala",
  "value": "Aravankara"
 },
 {
  "label": "Aravelli",
  "lat": 18.719,
  "lng": 79.0262,
  "country": "India",
  "State": "Telangana",
  "value": "Aravelli"
 },
 {
  "label": "Arcot",
  "lat": 12.9047,
  "lng": 79.3238,
  "country": "India",
  "State": "Tamil Nadu",
  "value": "Arcot"
 },
 {
  "label": "arda",
  "lat": 32.3087,
  "lng": 76.5772,
  "country": "India",
  "State": "Himachal Pradesh",
  "value": "arda"
 },
 {
  "label": "Areraj",
  "lat": 26.5527,
  "lng": 84.6726,
  "country": "India",
  "State": "Bihar",
  "value": "Areraj"
 },
 {
  "label": "Arimalam",
  "lat": 10.255,
  "lng": 78.884,
  "country": "India",
  "State": "Tamil Nadu",
  "value": "Arimalam"
 },
 {
  "label": "Ariyalur",
  "lat": 11.1372,
  "lng": 79.0778,
  "country": "India",
  "State": "Tamil Nadu",
  "value": "Ariyalur"
 },
 {
  "label": "Arkonam",
  "lat": 13.0778,
  "lng": 79.6667,
  "country": "India",
  "State": "Tamil Nadu",
  "value": "Arkonam"
 },
 {
  "label": "Arma",
  "lat": 25.1966,
  "lng": 86.2468,
  "country": "India",
  "State": "Bihar",
  "value": "Arma"
 },
 {
  "label": "Armur",
  "lat": 18.79,
  "lng": 78.29,
  "country": "India",
  "State": "Telangana",
  "value": "Armur"
 },
 {
  "label": "Arni",
  "lat": 12.6677,
  "lng": 79.2853,
  "country": "India",
  "State": "Tamil Nadu",
  "value": "Arni"
 },
 {
  "label": "Arni ka Khera",
  "lat": 24.9,
  "lng": 74.33,
  "country": "India",
  "State": "Rajasthan",
  "value": "Arni ka Khera"
 },
 {
  "label": "Arniya",
  "lat": 25.715,
  "lng": 85.5448,
  "country": "India",
  "State": "Bihar",
  "value": "Arniya"
 },
 {
  "label": "Aroali",
  "lat": 24.043,
  "lng": 87.9443,
  "country": "India",
  "State": "West Bengal",
  "value": "Aroali"
 },
 {
  "label": "Arohi",
  "lat": 31.8419,
  "lng": 76.8645,
  "country": "India",
  "State": "Himachal Pradesh",
  "value": "Arohi"
 },
 {
  "label": "aron",
  "lat": 24.3811,
  "lng": 77.4174,
  "country": "India",
  "State": "Madhya Pradesh",
  "value": "aron"
 },
 {
  "label": "Arrah",
  "lat": 25.5514,
  "lng": 84.6603,
  "country": "India",
  "State": "Bihar",
  "value": "Arrah"
 },
 {
  "label": "Arrapalli",
  "lat": 18.0718,
  "lng": 79.7386,
  "country": "India",
  "State": "Telangana",
  "value": "Arrapalli"
 },
 {
  "label": "Arsali",
  "lat": 24.3754,
  "lng": 83.5903,
  "country": "India",
  "State": "Jharkhand",
  "value": "Arsali"
 },
 {
  "label": "Arsikere",
  "lat": 13.3139,
  "lng": 76.2369,
  "country": "India",
  "State": "Karnataka",
  "value": "Arsikere"
 },
 {
  "label": "Arttuvattala",
  "lat": 9.5167,
  "lng": 76.3167,
  "country": "India",
  "State": "Kerala",
  "value": "Arttuvattala"
 },
 {
  "label": "Arugollu",
  "lat": 16.8253,
  "lng": 81.5775,
  "country": "India",
  "State": "Andhra Pradesh",
  "value": "Arugollu"
 },
 {
  "label": "Arukutti",
  "lat": 9.8309,
  "lng": 76.427,
  "country": "India",
  "State": "Kerala",
  "value": "Arukutti"
 },
 {
  "label": "Arumbakkam",
  "lat": 13.5427,
  "lng": 80.069,
  "country": "India",
  "State": "Tamil Nadu",
  "value": "Arumbakkam"
 },
 {
  "label": "Arumbavur",
  "lat": 11.381,
  "lng": 78.7296,
  "country": "India",
  "State": "Tamil Nadu",
  "value": "Arumbavur"
 },
 {
  "label": "arumuganeri",
  "lat": 8.5717,
  "lng": 78.0922,
  "country": "India",
  "State": "Tamil Nadu",
  "value": "arumuganeri"
 },
 {
  "label": "Aruppukkottai",
  "lat": 9.5139,
  "lng": 78.1002,
  "country": "India",
  "State": "Tamil Nadu",
  "value": "Aruppukkottai"
 },
 {
  "label": "arutla",
  "lat": 17.1346,
  "lng": 78.7574,
  "country": "India",
  "State": "Telangana",
  "value": "arutla"
 },
 {
  "label": "Aruvapalam",
  "lat": 9.1833,
  "lng": 76.85,
  "country": "India",
  "State": "Kerala",
  "value": "Aruvapalam"
 },
 {
  "label": "Aruvikkara",
  "lat": 8.3331,
  "lng": 77.2788,
  "country": "India",
  "State": "Tamil Nadu",
  "value": "Aruvikkara"
 },
 {
  "label": "Arwal",
  "lat": 25.2442,
  "lng": 84.6631,
  "country": "India",
  "State": "Bihar",
  "value": "Arwal"
 },
 {
  "label": "Asafabad",
  "lat": 19.365,
  "lng": 79.274,
  "country": "India",
  "State": "Telangana",
  "value": "Asafabad"
 },
 {
  "label": "Asahni",
  "lat": 26.0079,
  "lng": 84.4799,
  "country": "India",
  "State": "Bihar",
  "value": "Asahni"
 },
 {
  "label": "Asakapalle",
  "lat": 17.7364,
  "lng": 83.3,
  "country": "India",
  "State": "Andhra Pradesh",
  "value": "Asakapalle"
 },
 {
  "label": "Asan",
  "lat": 25.73,
  "lng": 74.33,
  "country": "India",
  "State": "Rajasthan",
  "value": "Asan"
 },
 {
  "label": "asansol",
  "lat": 23.68,
  "lng": 86.99,
  "country": "India",
  "State": "West Bengal",
  "value": "asansol"
 },
 {
  "label": "Asara",
  "lat": 29.2494,
  "lng": 77.2915,
  "country": "India",
  "State": "Uttar Pradesh",
  "value": "Asara"
 },
 {
  "label": "Asarganj",
  "lat": 25.15,
  "lng": 86.68,
  "country": "India",
  "State": "Bihar",
  "value": "Asarganj"
 },
 {
  "label": "Asarhi",
  "lat": 25.2892,
  "lng": 85.2189,
  "country": "India",
  "State": "Bihar",
  "value": "Asarhi"
 },
 {
  "label": "Ashoknagar",
  "lat": 24.58,
  "lng": 77.73,
  "country": "India",
  "State": "Madhya Pradesh",
  "value": "Ashoknagar"
 },
 {
  "label": "Ashta",
  "lat": 23.0175,
  "lng": 76.7221,
  "country": "India",
  "State": "Madhya Pradesh",
  "value": "Ashta"
 },
 {
  "label": "Ashwaraopeta",
  "lat": 17.25,
  "lng": 81.1333,
  "country": "India",
  "State": "Telangana",
  "value": "Ashwaraopeta"
 },
 {
  "label": "Assamannur",
  "lat": 10.1129,
  "lng": 76.5517,
  "country": "India",
  "State": "Kerala",
  "value": "Assamannur"
 },
 {
  "label": "Asthal Bohar",
  "lat": 28.873,
  "lng": 76.642,
  "country": "India",
  "State": "Haryana",
  "value": "Asthal Bohar"
 },
 {
  "label": "Asthanwan",
  "lat": 25.2215,
  "lng": 85.6262,
  "country": "India",
  "State": "Bihar",
  "value": "Asthanwan"
 },
 {
  "label": "Asudapuram",
  "lat": 15.878,
  "lng": 78.132,
  "country": "India",
  "State": "Andhra Pradesh",
  "value": "Asudapuram"
 },
 {
  "label": "Aswapuram",
  "lat": 17.8348,
  "lng": 80.8236,
  "country": "India",
  "State": "Telangana",
  "value": "Aswapuram"
 },
 {
  "label": "Atari",
  "lat": 31.6008,
  "lng": 74.6056,
  "country": "India",
  "State": "Punjab",
  "value": "Atari"
 },
 {
  "label": "Atarra",
  "lat": 25.28,
  "lng": 80.57,
  "country": "India",
  "State": "Uttar Pradesh",
  "value": "Atarra"
 },
 {
  "label": "Atchampeta",
  "lat": 15.5412,
  "lng": 78.9503,
  "country": "India",
  "State": "Andhra Pradesh",
  "value": "Atchampeta"
 },
 {
  "label": "Athar",
  "lat": 26.0392,
  "lng": 86.059,
  "country": "India",
  "State": "Bihar",
  "value": "Athar"
 },
 {
  "label": "atharga",
  "lat": 16.9875,
  "lng": 75.8863,
  "country": "India",
  "State": "Karnataka",
  "value": "atharga"
 },
 {
  "label": "Athiringal",
  "lat": 9.0667,
  "lng": 76.5,
  "country": "India",
  "State": "Kerala",
  "value": "Athiringal"
 },
 {
  "label": "Athni",
  "lat": 16.73,
  "lng": 75.07,
  "country": "India",
  "State": "Karnataka",
  "value": "Athni"
 },
 {
  "label": "Atlapadu",
  "lat": 16.8877,
  "lng": 81.6772,
  "country": "India",
  "State": "Andhra Pradesh",
  "value": "Atlapadu"
 },
 {
  "label": "Atmakur",
  "lat": 15.8779,
  "lng": 78.5884,
  "country": "India",
  "State": "Andhra Pradesh",
  "value": "Atmakur"
 },
 {
  "label": "Atmakur",
  "lat": 16.3364,
  "lng": 77.8056,
  "country": "India",
  "State": "Telangana",
  "value": "Atmakur"
 },
 {
  "label": "Atmakur",
  "lat": 18.0712,
  "lng": 79.736,
  "country": "India",
  "State": "Telangana",
  "value": "Atmakur"
 },
 {
  "label": "atmakur",
  "lat": 14.6167,
  "lng": 79.6167,
  "country": "India",
  "State": "Andhra Pradesh",
  "value": "atmakur"
 },
 {
  "label": "atmakuru",
  "lat": 14.6452,
  "lng": 77.3554,
  "country": "India",
  "State": "Andhra Pradesh",
  "value": "atmakuru"
 },
 {
  "label": "Atner",
  "lat": 21.6238,
  "lng": 77.9152,
  "country": "India",
  "State": "Madhya Pradesh",
  "value": "Atner"
 },
 {
  "label": "Atru",
  "lat": 24.81,
  "lng": 76.63,
  "country": "India",
  "State": "Rajasthan",
  "value": "Atru"
 },
 {
  "label": "Attanur",
  "lat": 11.5006,
  "lng": 78.1356,
  "country": "India",
  "State": "Tamil Nadu",
  "value": "Attanur"
 },
 {
  "label": "Attappampatti",
  "lat": 11.482,
  "lng": 78.0248,
  "country": "India",
  "State": "Tamil Nadu",
  "value": "Attappampatti"
 },
 {
  "label": "Attibele",
  "lat": 12.7781,
  "lng": 77.7726,
  "country": "India",
  "State": "Tamil Nadu",
  "value": "Attibele"
 },
 {
  "label": "Attili",
  "lat": 16.7,
  "lng": 81.6,
  "country": "India",
  "State": "Andhra Pradesh",
  "value": "Attili"
 },
 {
  "label": "Attimarappatti",
  "lat": 8.7297,
  "lng": 78.1169,
  "country": "India",
  "State": "Tamil Nadu",
  "value": "Attimarappatti"
 },
 {
  "label": "Attingal",
  "lat": 8.68,
  "lng": 76.83,
  "country": "India",
  "State": "Kerala",
  "value": "Attingal"
 },
 {
  "label": "Attippattu",
  "lat": 13.2633,
  "lng": 80.2911,
  "country": "India",
  "State": "Tamil Nadu",
  "value": "Attippattu"
 },
 {
  "label": "Attur",
  "lat": 8.3224,
  "lng": 77.2558,
  "country": "India",
  "State": "Tamil Nadu",
  "value": "Attur"
 },
 {
  "label": "atturkuppam",
  "lat": 12.6,
  "lng": 78.5423,
  "country": "India",
  "State": "Tamil Nadu",
  "value": "atturkuppam"
 },
 {
  "label": "Auhar Sheikh",
  "lat": 26.7216,
  "lng": 84.5993,
  "country": "India",
  "State": "Bihar",
  "value": "Auhar Sheikh"
 },
 {
  "label": "Aul",
  "lat": 20.67,
  "lng": 86.64,
  "country": "India",
  "State": "Odisha",
  "value": "Aul"
 },
 {
  "label": "Aurad",
  "lat": 18.254,
  "lng": 77.4176,
  "country": "India",
  "State": "Karnataka",
  "value": "Aurad"
 },
 {
  "label": "Aurad Shahjahani",
  "lat": 18.0958,
  "lng": 76.8881,
  "country": "India",
  "State": "Karnataka",
  "value": "Aurad Shahjahani"
 },
 {
  "label": "Aurahi",
  "lat": 25.8263,
  "lng": 87.1365,
  "country": "India",
  "State": "Bihar",
  "value": "Aurahi"
 },
 {
  "label": "Aurahi",
  "lat": 26.1895,
  "lng": 87.3372,
  "country": "India",
  "State": "Bihar",
  "value": "Aurahi"
 },
 {
  "label": "Aurahi",
  "lat": 25.5709,
  "lng": 86.9668,
  "country": "India",
  "State": "Bihar",
  "value": "Aurahi"
 },
 {
  "label": "Aurahi",
  "lat": 26.0355,
  "lng": 86.7467,
  "country": "India",
  "State": "Bihar",
  "value": "Aurahi"
 },
 {
  "label": "Aurangabad",
  "lat": 19.88,
  "lng": 75.32,
  "country": "India",
  "State": "Maharashtra",
  "value": "Aurangabad"
 },
 {
  "label": "Aurangabad",
  "lat": 24.7,
  "lng": 84.35,
  "country": "India",
  "State": "Bihar",
  "value": "Aurangabad"
 },
 {
  "label": "Aurangabad",
  "lat": 27.894,
  "lng": 77.369,
  "country": "India",
  "State": "Haryana",
  "value": "Aurangabad"
 },
 {
  "label": "Auria",
  "lat": 24.8563,
  "lng": 87.0112,
  "country": "India",
  "State": "Bihar",
  "value": "Auria"
 },
 {
  "label": "Auta",
  "lat": 25.3882,
  "lng": 85.9558,
  "country": "India",
  "State": "Bihar",
  "value": "Auta"
 },
 {
  "label": "avadattur",
  "lat": 11.7014,
  "lng": 77.8638,
  "country": "India",
  "State": "Tamil Nadu",
  "value": "avadattur"
 },
 {
  "label": "avadi",
  "lat": 13.1147,
  "lng": 80.1098,
  "country": "India",
  "State": "Tamil Nadu",
  "value": "avadi"
 },
 {
  "label": "Avalpalli",
  "lat": 12.7714,
  "lng": 77.8594,
  "country": "India",
  "State": "Tamil Nadu",
  "value": "Avalpalli"
 },
 {
  "label": "Avalpundurai",
  "lat": 11.231,
  "lng": 77.7182,
  "country": "India",
  "State": "Tamil Nadu",
  "value": "Avalpundurai"
 },
 {
  "label": "Avalurpet",
  "lat": 12.38,
  "lng": 79.3465,
  "country": "India",
  "State": "Tamil Nadu",
  "value": "Avalurpet"
 },
 {
  "label": "Avanashipalaiyam",
  "lat": 10.9696,
  "lng": 77.4352,
  "country": "India",
  "State": "Tamil Nadu",
  "value": "Avanashipalaiyam"
 },
 {
  "label": "Avanigadda",
  "lat": 16.0197,
  "lng": 80.92,
  "country": "India",
  "State": "Andhra Pradesh",
  "value": "Avanigadda"
 },
 {
  "label": "Avaniyapuram",
  "lat": 9.8818,
  "lng": 78.1125,
  "country": "India",
  "State": "Tamil Nadu",
  "value": "Avaniyapuram"
 },
 {
  "label": "Avidha",
  "lat": 21.6651,
  "lng": 73.0366,
  "country": "India",
  "State": "Gujarat",
  "value": "Avidha"
 },
 {
  "label": "Avitanallur",
  "lat": 11.5002,
  "lng": 75.8059,
  "country": "India",
  "State": "Kerala",
  "value": "Avitanallur"
 },
 {
  "label": "Awankh",
  "lat": 32.1392,
  "lng": 75.4611,
  "country": "India",
  "State": "Punjab",
  "value": "Awankh"
 },
 {
  "label": "Awantipur",
  "lat": 33.9233,
  "lng": 75.0128,
  "country": "India",
  "State": "Jammu and Kashmir",
  "value": "Awantipur"
 },
 {
  "label": "Ayanavelikulangara Tekku",
  "lat": 9.0436,
  "lng": 76.5199,
  "country": "India",
  "State": "Kerala",
  "value": "Ayanavelikulangara Tekku"
 },
 {
  "label": "Ayanikkad",
  "lat": 10.458,
  "lng": 76.126,
  "country": "India",
  "State": "Kerala",
  "value": "Ayanikkad"
 },
 {
  "label": "Ayas",
  "lat": 24.2508,
  "lng": 87.7784,
  "country": "India",
  "State": "West Bengal",
  "value": "Ayas"
 },
 {
  "label": "ayikudi",
  "lat": 9.0032,
  "lng": 77.3449,
  "country": "India",
  "State": "Tamil Nadu",
  "value": "ayikudi"
 },
 {
  "label": "Ayinikkad",
  "lat": 11.4974,
  "lng": 75.72,
  "country": "India",
  "State": "Kerala",
  "value": "Ayinikkad"
 },
 {
  "label": "Ayirapuram",
  "lat": 9.88,
  "lng": 76.3,
  "country": "India",
  "State": "Kerala",
  "value": "Ayirapuram"
 },
 {
  "label": "Ayirurpara",
  "lat": 8.503,
  "lng": 76.9522,
  "country": "India",
  "State": "Kerala",
  "value": "Ayirurpara"
 },
 {
  "label": "Aymangala",
  "lat": 12.0333,
  "lng": 75.7333,
  "country": "India",
  "State": "Karnataka",
  "value": "Aymangala"
 },
 {
  "label": "Ayodhyapattanam",
  "lat": 11.6755,
  "lng": 78.2409,
  "country": "India",
  "State": "Tamil Nadu",
  "value": "Ayodhyapattanam"
 },
 {
  "label": "Ayyagarpet",
  "lat": 17.2197,
  "lng": 80.8339,
  "country": "India",
  "State": "Telangana",
  "value": "Ayyagarpet"
 },
 {
  "label": "Ayyampalaiyam",
  "lat": 10.2253,
  "lng": 77.7485,
  "country": "India",
  "State": "Tamil Nadu",
  "value": "Ayyampalaiyam"
 },
 {
  "label": "Ayyampettai",
  "lat": 10.8971,
  "lng": 79.1915,
  "country": "India",
  "State": "Tamil Nadu",
  "value": "Ayyampettai"
 },
 {
  "label": "azamnagar",
  "lat": 25.5456,
  "lng": 87.8294,
  "country": "India",
  "State": "Bihar",
  "value": "azamnagar"
 },
 {
  "label": "Azhikkal",
  "lat": 11.9076,
  "lng": 75.3446,
  "country": "India",
  "State": "Kerala",
  "value": "Azhikkal"
 },
 {
  "label": "Azhikkod",
  "lat": 11.9076,
  "lng": 75.3446,
  "country": "India",
  "State": "Kerala",
  "value": "Azhikkod"
 },
 {
  "label": "Azizpur Chande",
  "lat": 25.7932,
  "lng": 85.5945,
  "country": "India",
  "State": "Bihar",
  "value": "Azizpur Chande"
 },
 {
  "label": "Baba Bakala",
  "lat": 31.555,
  "lng": 75.2656,
  "country": "India",
  "State": "Punjab",
  "value": "Baba Bakala"
 },
 {
  "label": "Babai",
  "lat": 22.7026,
  "lng": 77.9349,
  "country": "India",
  "State": "Madhya Pradesh",
  "value": "Babai"
 },
 {
  "label": "Babai Kalan",
  "lat": 22.8313,
  "lng": 78.6774,
  "country": "India",
  "State": "Madhya Pradesh",
  "value": "Babai Kalan"
 },
 {
  "label": "Babhanganwa",
  "lat": 26.1398,
  "lng": 86.8464,
  "country": "India",
  "State": "Bihar",
  "value": "Babhanganwa"
 },
 {
  "label": "Babhangaon",
  "lat": 25.7897,
  "lng": 86.9767,
  "country": "India",
  "State": "Bihar",
  "value": "Babhangaon"
 },
 {
  "label": "Babhangawan",
  "lat": 25.3674,
  "lng": 86.9501,
  "country": "India",
  "State": "Bihar",
  "value": "Babhangawan"
 },
 {
  "label": "Babhani Bholwa",
  "lat": 26.0876,
  "lng": 86.7456,
  "country": "India",
  "State": "Bihar",
  "value": "Babhani Bholwa"
 },
 {
  "label": "Babhantoli",
  "lat": 26.252,
  "lng": 87.926,
  "country": "India",
  "State": "Bihar",
  "value": "Babhantoli"
 },
 {
  "label": "Babhniyawan",
  "lat": 25.4943,
  "lng": 84.4815,
  "country": "India",
  "State": "Bihar",
  "value": "Babhniyawan"
 },
 {
  "label": "Babhnoul",
  "lat": 25.3202,
  "lng": 84.2128,
  "country": "India",
  "State": "Bihar",
  "value": "Babhnoul"
 },
 {
  "label": "Babra",
  "lat": 21.8442,
  "lng": 71.3042,
  "country": "India",
  "State": "Gujarat",
  "value": "Babra"
 },
 {
  "label": "Babura",
  "lat": 25.6838,
  "lng": 84.7825,
  "country": "India",
  "State": "Bihar",
  "value": "Babura"
 },
 {
  "label": "Bachchannapet",
  "lat": 17.7883,
  "lng": 79.0349,
  "country": "India",
  "State": "Telangana",
  "value": "Bachchannapet"
 },
 {
  "label": "Bachhauta",
  "lat": 25.5242,
  "lng": 86.4606,
  "country": "India",
  "State": "Bihar",
  "value": "Bachhauta"
 },
 {
  "label": "Bachhraon",
  "lat": 28.93,
  "lng": 78.22,
  "country": "India",
  "State": "Uttar Pradesh",
  "value": "Bachhraon"
 },
 {
  "label": "Bachra",
  "lat": 23.6886,
  "lng": 85.0703,
  "country": "India",
  "State": "Jharkhand",
  "value": "Bachra"
 },
 {
  "label": "Bada Barabil",
  "lat": 22.12,
  "lng": 85.4,
  "country": "India",
  "State": "Odisha",
  "value": "Bada Barabil"
 },
 {
  "label": "Badagabettu",
  "lat": 13.3335,
  "lng": 74.7999,
  "country": "India",
  "State": "Karnataka",
  "value": "Badagabettu"
 },
 {
  "label": "Badami",
  "lat": 15.92,
  "lng": 75.6803,
  "country": "India",
  "State": "Karnataka",
  "value": "Badami"
 },
 {
  "label": "Badanahatti",
  "lat": 15.3176,
  "lng": 76.8258,
  "country": "India",
  "State": "Karnataka",
  "value": "Badanahatti"
 },
 {
  "label": "Badantola",
  "lat": 25.2517,
  "lng": 87.842,
  "country": "India",
  "State": "West Bengal",
  "value": "Badantola"
 },
 {
  "label": "Badarpur",
  "lat": 24.8685,
  "lng": 92.5961,
  "country": "India",
  "State": "Assam",
  "value": "Badarpur"
 },
 {
  "label": "Badarwas",
  "lat": 24.9752,
  "lng": 77.5649,
  "country": "India",
  "State": "Madhya Pradesh",
  "value": "Badarwas"
 },
 {
  "label": "Badepalli",
  "lat": 16.7549,
  "lng": 78.1443,
  "country": "India",
  "State": "Telangana",
  "value": "Badepalli"
 },
 {
  "label": "Badiadka",
  "lat": 12.5833,
  "lng": 75.0667,
  "country": "India",
  "State": "Kerala",
  "value": "Badiadka"
 },
 {
  "label": "Badkulla",
  "lat": 23.3036,
  "lng": 88.5302,
  "country": "India",
  "State": "West Bengal",
  "value": "Badkulla"
 },
 {
  "label": "Badnawar",
  "lat": 23.0218,
  "lng": 75.2327,
  "country": "India",
  "State": "Madhya Pradesh",
  "value": "Badnawar"
 },
 {
  "label": "Badnor",
  "lat": 25.8355,
  "lng": 74.2775,
  "country": "India",
  "State": "Rajasthan",
  "value": "Badnor"
 },
 {
  "label": "Badru Khan",
  "lat": 30.2523,
  "lng": 75.7917,
  "country": "India",
  "State": "Punjab",
  "value": "Badru Khan"
 },
 {
  "label": "Badshahpur",
  "lat": 28.393,
  "lng": 77.048,
  "country": "India",
  "State": "Haryana",
  "value": "Badshahpur"
 },
 {
  "label": "Baduria",
  "lat": 22.74,
  "lng": 88.79,
  "country": "India",
  "State": "West Bengal",
  "value": "Baduria"
 },
 {
  "label": "Baduriatola",
  "lat": 24.0928,
  "lng": 84.0895,
  "country": "India",
  "State": "Jharkhand",
  "value": "Baduriatola"
 },
 {
  "label": "Badurpalle",
  "lat": 17.5468,
  "lng": 78.365,
  "country": "India",
  "State": "Telangana",
  "value": "Badurpalle"
 },
 {
  "label": "Badvel",
  "lat": 14.75,
  "lng": 79.05,
  "country": "India",
  "State": "Andhra Pradesh",
  "value": "Badvel"
 },
 {
  "label": "Bag",
  "lat": 22.359,
  "lng": 74.7905,
  "country": "India",
  "State": "Madhya Pradesh",
  "value": "Bag"
 },
 {
  "label": "Bagaha",
  "lat": 27.0992,
  "lng": 84.09,
  "country": "India",
  "State": "Bihar",
  "value": "Bagaha"
 },
 {
  "label": "Bagahi",
  "lat": 26.7632,
  "lng": 84.467,
  "country": "India",
  "State": "Bihar",
  "value": "Bagahi"
 },
 {
  "label": "Bagalkot",
  "lat": 16.1817,
  "lng": 75.6958,
  "country": "India",
  "State": "Karnataka",
  "value": "Bagalkot"
 },
 {
  "label": "Bagalur",
  "lat": 12.8333,
  "lng": 77.8667,
  "country": "India",
  "State": "Tamil Nadu",
  "value": "Bagalur"
 },
 {
  "label": "Bagalvad",
  "lat": 16.0528,
  "lng": 76.8877,
  "country": "India",
  "State": "Karnataka",
  "value": "Bagalvad"
 },
 {
  "label": "Bagasra",
  "lat": 21.4833,
  "lng": 70.95,
  "country": "India",
  "State": "Gujarat",
  "value": "Bagasra"
 },
 {
  "label": "Bagaura",
  "lat": 26.0388,
  "lng": 84.4624,
  "country": "India",
  "State": "Bihar",
  "value": "Bagaura"
 },
 {
  "label": "Bagchini",
  "lat": 26.4817,
  "lng": 77.8185,
  "country": "India",
  "State": "Madhya Pradesh",
  "value": "Bagchini"
 },
 {
  "label": "Bagepalli",
  "lat": 13.78,
  "lng": 77.79,
  "country": "India",
  "State": "Karnataka",
  "value": "Bagepalli"
 },
 {
  "label": "Bageshwar",
  "lat": 29.838,
  "lng": 79.771,
  "country": "India",
  "State": "Uttarakhand",
  "value": "Bageshwar"
 },
 {
  "label": "Bagewadi",
  "lat": 16.29,
  "lng": 74.6,
  "country": "India",
  "State": "Karnataka",
  "value": "Bagewadi"
 },
 {
  "label": "Bagha Purana",
  "lat": 30.6881,
  "lng": 75.0984,
  "country": "India",
  "State": "Punjab",
  "value": "Bagha Purana"
 },
 {
  "label": "Baghambarpur",
  "lat": 26.8075,
  "lng": 84.4059,
  "country": "India",
  "State": "Bihar",
  "value": "Baghambarpur"
 },
 {
  "label": "Baghant",
  "lat": 26.1748,
  "lng": 86.1705,
  "country": "India",
  "State": "Bihar",
  "value": "Baghant"
 },
 {
  "label": "Baghauni",
  "lat": 25.9338,
  "lng": 86.0594,
  "country": "India",
  "State": "Bihar",
  "value": "Baghauni"
 },
 {
  "label": "Baghduma",
  "lat": 24.8223,
  "lng": 87.0116,
  "country": "India",
  "State": "Bihar",
  "value": "Baghduma"
 },
 {
  "label": "Baghmari",
  "lat": 20.2206,
  "lng": 85.5014,
  "country": "India",
  "State": "Odisha",
  "value": "Baghmari"
 },
 {
  "label": "Baghmaria",
  "lat": 26.44,
  "lng": 86.43,
  "country": "India",
  "State": "Bihar",
  "value": "Baghmaria"
 },
 {
  "label": "Baghpat",
  "lat": 28.95,
  "lng": 77.22,
  "country": "India",
  "State": "Uttar Pradesh",
  "value": "Baghpat"
 },
 {
  "label": "Baghra",
  "lat": 25.5597,
  "lng": 85.5841,
  "country": "India",
  "State": "Bihar",
  "value": "Baghra"
 },
 {
  "label": "Bagli",
  "lat": 22.6412,
  "lng": 76.3488,
  "country": "India",
  "State": "Madhya Pradesh",
  "value": "Bagli"
 },
 {
  "label": "Bagnan",
  "lat": 22.47,
  "lng": 87.97,
  "country": "India",
  "State": "West Bengal",
  "value": "Bagnan"
 },
 {
  "label": "Bagor",
  "lat": 25.3575,
  "lng": 74.3731,
  "country": "India",
  "State": "Rajasthan",
  "value": "Bagor"
 },
 {
  "label": "Bagra",
  "lat": 25.2,
  "lng": 72.5833,
  "country": "India",
  "State": "Rajasthan",
  "value": "Bagra"
 },
 {
  "label": "Bagrinagar",
  "lat": 25.9,
  "lng": 73.8,
  "country": "India",
  "State": "Rajasthan",
  "value": "Bagrinagar"
 },
 {
  "label": "Bagula",
  "lat": 23.335,
  "lng": 88.644,
  "country": "India",
  "State": "West Bengal",
  "value": "Bagula"
 },
 {
  "label": "Bahadarpur",
  "lat": 21.2922,
  "lng": 76.1806,
  "country": "India",
  "State": "Madhya Pradesh",
  "value": "Bahadarpur"
 },
 {
  "label": "Bahadurganj",
  "lat": 26.2617,
  "lng": 87.8244,
  "country": "India",
  "State": "Bihar",
  "value": "Bahadurganj"
 },
 {
  "label": "Bahadurpur",
  "lat": 25.4522,
  "lng": 85.6303,
  "country": "India",
  "State": "Bihar",
  "value": "Bahadurpur"
 },
 {
  "label": "Bahagalpur",
  "lat": 24.5934,
  "lng": 87.9536,
  "country": "India",
  "State": "West Bengal",
  "value": "Bahagalpur"
 },
 {
  "label": "Baharampur",
  "lat": 24.1,
  "lng": 88.25,
  "country": "India",
  "State": "West Bengal",
  "value": "Baharampur"
 },
 {
  "label": "Baharu",
  "lat": 22.204,
  "lng": 88.4283,
  "country": "India",
  "State": "West Bengal",
  "value": "Baharu"
 },
 {
  "label": "Baheri",
  "lat": 25.9426,
  "lng": 86.0471,
  "country": "India",
  "State": "Bihar",
  "value": "Baheri"
 },
 {
  "label": "Bahraigh",
  "lat": 27.575,
  "lng": 81.594,
  "country": "India",
  "State": "Uttar Pradesh",
  "value": "Bahraigh"
 },
 {
  "label": "Bahutal",
  "lat": 24.5714,
  "lng": 87.8971,
  "country": "India",
  "State": "West Bengal",
  "value": "Bahutal"
 },
 {
  "label": "Baihar",
  "lat": 22.1013,
  "lng": 80.5497,
  "country": "India",
  "State": "Madhya Pradesh",
  "value": "Baihar"
 },
 {
  "label": "Baikatpur",
  "lat": 25.4939,
  "lng": 85.3792,
  "country": "India",
  "State": "Bihar",
  "value": "Baikatpur"
 },
 {
  "label": "Baikunthapur",
  "lat": 22.9808,
  "lng": 88.2058,
  "country": "India",
  "State": "West Bengal",
  "value": "Baikunthapur"
 },
 {
  "label": "Baikunthpur",
  "lat": 24.7277,
  "lng": 81.4098,
  "country": "India",
  "State": "Madhya Pradesh",
  "value": "Baikunthpur"
 },
 {
  "label": "Bail-Hongal",
  "lat": 15.8137,
  "lng": 74.8589,
  "country": "India",
  "State": "Karnataka",
  "value": "Bail-Hongal"
 },
 {
  "label": "Baindur",
  "lat": 13.866,
  "lng": 74.6333,
  "country": "India",
  "State": "Karnataka",
  "value": "Baindur"
 },
 {
  "label": "Bairagnia",
  "lat": 26.7381,
  "lng": 85.2736,
  "country": "India",
  "State": "Bihar",
  "value": "Bairagnia"
 },
 {
  "label": "Bairi Chak",
  "lat": 24.6951,
  "lng": 84.9913,
  "country": "India",
  "State": "Bihar",
  "value": "Bairi Chak"
 },
 {
  "label": "Bairia",
  "lat": 25.7583,
  "lng": 84.1489,
  "country": "India",
  "State": "Uttar Pradesh",
  "value": "Bairia"
 },
 {
  "label": "Bairia",
  "lat": 25.5563,
  "lng": 85.1835,
  "country": "India",
  "State": "Bihar",
  "value": "Bairia"
 },
 {
  "label": "Bairia",
  "lat": 26.7373,
  "lng": 84.4371,
  "country": "India",
  "State": "Bihar",
  "value": "Bairia"
 },
 {
  "label": "Bairiya",
  "lat": 26.3392,
  "lng": 84.8236,
  "country": "India",
  "State": "Bihar",
  "value": "Bairiya"
 },
 {
  "label": "Bairo",
  "lat": 26.0144,
  "lng": 86.51,
  "country": "India",
  "State": "Bihar",
  "value": "Bairo"
 },
 {
  "label": "Baisa",
  "lat": 25.3552,
  "lng": 86.7246,
  "country": "India",
  "State": "Bihar",
  "value": "Baisa"
 },
 {
  "label": "Baisuhalli",
  "lat": 12.2064,
  "lng": 78.1906,
  "country": "India",
  "State": "Tamil Nadu",
  "value": "Baisuhalli"
 },
 {
  "label": "Baj Baj",
  "lat": 22.4828,
  "lng": 88.1818,
  "country": "India",
  "State": "West Bengal",
  "value": "Baj Baj"
 },
 {
  "label": "Bajala",
  "lat": 12.8537,
  "lng": 74.8853,
  "country": "India",
  "State": "Karnataka",
  "value": "Bajala"
 },
 {
  "label": "Bajpe",
  "lat": 12.9803,
  "lng": 74.8832,
  "country": "India",
  "State": "Karnataka",
  "value": "Bajpe"
 },
 {
  "label": "Bajwara",
  "lat": 31.515,
  "lng": 75.9494,
  "country": "India",
  "State": "Punjab",
  "value": "Bajwara"
 },
 {
  "label": "Bakarpur Ogairah",
  "lat": 25.3294,
  "lng": 87.5138,
  "country": "India",
  "State": "Bihar",
  "value": "Bakarpur Ogairah"
 },
 {
  "label": "Bakharia",
  "lat": 26.7666,
  "lng": 84.6619,
  "country": "India",
  "State": "Bihar",
  "value": "Bakharia"
 },
 {
  "label": "Bakhri",
  "lat": 25.5989,
  "lng": 86.2607,
  "country": "India",
  "State": "Bihar",
  "value": "Bakhri"
 },
 {
  "label": "Bakhtawarpur",
  "lat": 28.821,
  "lng": 77.166,
  "country": "India",
  "State": "Delhi",
  "value": "Bakhtawarpur"
 },
 {
  "label": "Bakhtiyarpur",
  "lat": 25.459,
  "lng": 85.539,
  "country": "India",
  "State": "Bihar",
  "value": "Bakhtiyarpur"
 },
 {
  "label": "Bakwa",
  "lat": 26.0601,
  "lng": 86.4124,
  "country": "India",
  "State": "Bihar",
  "value": "Bakwa"
 },
 {
  "label": "Baladharmaram",
  "lat": 17.4104,
  "lng": 79.969,
  "country": "India",
  "State": "Telangana",
  "value": "Baladharmaram"
 },
 {
  "label": "Balagam",
  "lat": 21.3694,
  "lng": 70.0981,
  "country": "India",
  "State": "Gujarat",
  "value": "Balagam"
 },
 {
  "label": "Balakrishnanpatti",
  "lat": 11.2511,
  "lng": 78.4736,
  "country": "India",
  "State": "Tamil Nadu",
  "value": "Balakrishnanpatti"
 },
 {
  "label": "Balangir",
  "lat": 20.72,
  "lng": 83.48,
  "country": "India",
  "State": "Odisha",
  "value": "Balangir"
 },
 {
  "label": "Balarampur",
  "lat": 26.2432,
  "lng": 89.5863,
  "country": "India",
  "State": "West Bengal",
  "value": "Balarampur"
 },
 {
  "label": "Balarampur",
  "lat": 23.12,
  "lng": 86.22,
  "country": "India",
  "State": "West Bengal",
  "value": "Balarampur"
 },
 {
  "label": "Balarampuram",
  "lat": 8.3833,
  "lng": 77.0833,
  "country": "India",
  "State": "Kerala",
  "value": "Balarampuram"
 },
 {
  "label": "Balasamudram",
  "lat": 10.419,
  "lng": 77.4992,
  "country": "India",
  "State": "Tamil Nadu",
  "value": "Balasamudram"
 },
 {
  "label": "Balasore",
  "lat": 21.5033,
  "lng": 86.925,
  "country": "India",
  "State": "Odisha",
  "value": "Balasore"
 },
 {
  "label": "Balaungi",
  "lat": 30.7306,
  "lng": 76.6937,
  "country": "India",
  "State": "Punjab",
  "value": "Balaungi"
 },
 {
  "label": "Baldeogarh",
  "lat": 24.7562,
  "lng": 79.0672,
  "country": "India",
  "State": "Madhya Pradesh",
  "value": "Baldeogarh"
 },
 {
  "label": "Balehonnur",
  "lat": 13.35,
  "lng": 75.46,
  "country": "India",
  "State": "Karnataka",
  "value": "Balehonnur"
 },
 {
  "label": "Balha",
  "lat": 25.5468,
  "lng": 86.5683,
  "country": "India",
  "State": "Bihar",
  "value": "Balha"
 },
 {
  "label": "Balhapur",
  "lat": 25.3511,
  "lng": 86.2122,
  "country": "India",
  "State": "Bihar",
  "value": "Balhapur"
 },
 {
  "label": "Bali",
  "lat": 22.65,
  "lng": 88.34,
  "country": "India",
  "State": "West Bengal",
  "value": "Bali"
 },
 {
  "label": "Balia",
  "lat": 24.2433,
  "lng": 75.8061,
  "country": "India",
  "State": "Rajasthan",
  "value": "Balia"
 },
 {
  "label": "Baligaon",
  "lat": 25.4196,
  "lng": 84.4951,
  "country": "India",
  "State": "Bihar",
  "value": "Baligaon"
 },
 {
  "label": "Balighattam",
  "lat": 17.651,
  "lng": 82.6059,
  "country": "India",
  "State": "Andhra Pradesh",
  "value": "Balighattam"
 },
 {
  "label": "Balkonda",
  "lat": 18.8667,
  "lng": 78.35,
  "country": "India",
  "State": "Telangana",
  "value": "Balkonda"
 },
 {
  "label": "Ballia",
  "lat": 25.7604,
  "lng": 84.1471,
  "country": "India",
  "State": "Uttar Pradesh",
  "value": "Ballia"
 },
 {
  "label": "Balrampur",
  "lat": 27.43,
  "lng": 82.18,
  "country": "India",
  "State": "Uttar Pradesh",
  "value": "Balrampur"
 },
 {
  "label": "Baltara",
  "lat": 25.5116,
  "lng": 86.7232,
  "country": "India",
  "State": "Bihar",
  "value": "Baltara"
 },
 {
  "label": "Balua",
  "lat": 26.3272,
  "lng": 87.6231,
  "country": "India",
  "State": "Bihar",
  "value": "Balua"
 },
 {
  "label": "Balua Rampur",
  "lat": 26.7777,
  "lng": 84.428,
  "country": "India",
  "State": "Bihar",
  "value": "Balua Rampur"
 },
 {
  "label": "Balugan",
  "lat": 19.7333,
  "lng": 85.2167,
  "country": "India",
  "State": "Odisha",
  "value": "Balugan"
 },
 {
  "label": "Balumath",
  "lat": 23.8298,
  "lng": 84.7888,
  "country": "India",
  "State": "Jharkhand",
  "value": "Balumath"
 },
 {
  "label": "Balupur",
  "lat": 25.2611,
  "lng": 87.8947,
  "country": "India",
  "State": "West Bengal",
  "value": "Balupur"
 },
 {
  "label": "Balurghat",
  "lat": 25.22,
  "lng": 88.76,
  "country": "India",
  "State": "West Bengal",
  "value": "Balurghat"
 },
 {
  "label": "Balussheri",
  "lat": 11.45,
  "lng": 75.83,
  "country": "India",
  "State": "Kerala",
  "value": "Balussheri"
 },
 {
  "label": "Balvadi",
  "lat": 21.4412,
  "lng": 75.223,
  "country": "India",
  "State": "Madhya Pradesh",
  "value": "Balvadi"
 },
 {
  "label": "Balwa",
  "lat": 29.406,
  "lng": 77.308,
  "country": "India",
  "State": "Uttar Pradesh",
  "value": "Balwa"
 },
 {
  "label": "Bamaiya Harlal",
  "lat": 25.6664,
  "lng": 85.8802,
  "country": "India",
  "State": "Bihar",
  "value": "Bamaiya Harlal"
 },
 {
  "label": "Bamaur",
  "lat": 26.339,
  "lng": 78.101,
  "country": "India",
  "State": "Madhya Pradesh",
  "value": "Bamaur"
 },
 {
  "label": "Bamhni",
  "lat": 22.4822,
  "lng": 80.3716,
  "country": "India",
  "State": "Madhya Pradesh",
  "value": "Bamhni"
 },
 {
  "label": "Bamora",
  "lat": 24.0554,
  "lng": 78.0893,
  "country": "India",
  "State": "Madhya Pradesh",
  "value": "Bamora"
 },
 {
  "label": "Banagi",
  "lat": 13.61,
  "lng": 75.53,
  "country": "India",
  "State": "Karnataka",
  "value": "Banagi"
 },
 {
  "label": "Banapur",
  "lat": 19.7789,
  "lng": 85.1703,
  "country": "India",
  "State": "Odisha",
  "value": "Banapur"
 },
 {
  "label": "Banaso",
  "lat": 23.9884,
  "lng": 85.7866,
  "country": "India",
  "State": "Jharkhand",
  "value": "Banaso"
 },
 {
  "label": "Banavar",
  "lat": 13.4167,
  "lng": 76.1667,
  "country": "India",
  "State": "Karnataka",
  "value": "Banavar"
 },
 {
  "label": "Banbhag",
  "lat": 25.7919,
  "lng": 87.414,
  "country": "India",
  "State": "Bihar",
  "value": "Banbhag"
 },
 {
  "label": "Banda",
  "lat": 24.0449,
  "lng": 78.9609,
  "country": "India",
  "State": "Madhya Pradesh",
  "value": "Banda"
 },
 {
  "label": "Bandalli",
  "lat": 12.164,
  "lng": 77.3504,
  "country": "India",
  "State": "Karnataka",
  "value": "Bandalli"
 },
 {
  "label": "Bandamurlanka",
  "lat": 16.517,
  "lng": 81.988,
  "country": "India",
  "State": "Andhra Pradesh",
  "value": "Bandamurlanka"
 },
 {
  "label": "Bandipura",
  "lat": 34.4167,
  "lng": 74.65,
  "country": "India",
  "State": "Jammu and Kashmir",
  "value": "Bandipura"
 },
 {
  "label": "Bandlaguda",
  "lat": 17.3543,
  "lng": 78.3853,
  "country": "India",
  "State": "Telangana",
  "value": "Bandlaguda"
 },
 {
  "label": "Bandora",
  "lat": 15.4082,
  "lng": 73.9813,
  "country": "India",
  "State": "Goa",
  "value": "Bandora"
 },
 {
  "label": "Bandwar",
  "lat": 25.5093,
  "lng": 86.1595,
  "country": "India",
  "State": "Bihar",
  "value": "Bandwar"
 },
 {
  "label": "Banga",
  "lat": 31.1887,
  "lng": 75.9949,
  "country": "India",
  "State": "Punjab",
  "value": "Banga"
 },
 {
  "label": "Bangalore",
  "lat": 12.9789,
  "lng": 77.5917,
  "country": "India",
  "State": "Karnataka",
  "value": "Bangalore"
 },
 {
  "label": "Banganapalle",
  "lat": 15.3167,
  "lng": 78.2333,
  "country": "India",
  "State": "Andhra Pradesh",
  "value": "Banganapalle"
 },
 {
  "label": "Bangaon",
  "lat": 23.07,
  "lng": 88.82,
  "country": "India",
  "State": "West Bengal",
  "value": "Bangaon"
 },
 {
  "label": "Bangaon",
  "lat": 25.8673,
  "lng": 86.5115,
  "country": "India",
  "State": "Bihar",
  "value": "Bangaon"
 },
 {
  "label": "Bangaon",
  "lat": 26.3081,
  "lng": 87.8833,
  "country": "India",
  "State": "Bihar",
  "value": "Bangaon"
 },
 {
  "label": "Bangawan",
  "lat": 26.0427,
  "lng": 87.4202,
  "country": "India",
  "State": "Bihar",
  "value": "Bangawan"
 },
 {
  "label": "Bangramanjshvara",
  "lat": 12.6833,
  "lng": 75,
  "country": "India",
  "State": "Kerala",
  "value": "Bangramanjshvara"
 },
 {
  "label": "Banhatti",
  "lat": 16.3853,
  "lng": 75.1494,
  "country": "India",
  "State": "Karnataka",
  "value": "Banhatti"
 },
 {
  "label": "Bank",
  "lat": 24.9539,
  "lng": 84.1928,
  "country": "India",
  "State": "Bihar",
  "value": "Bank"
 },
 {
  "label": "Bankapur",
  "lat": 14.923,
  "lng": 75.2622,
  "country": "India",
  "State": "Karnataka",
  "value": "Bankapur"
 },
 {
  "label": "Bankheri",
  "lat": 22.7696,
  "lng": 78.5341,
  "country": "India",
  "State": "Madhya Pradesh",
  "value": "Bankheri"
 },
 {
  "label": "Banki",
  "lat": 20.3791,
  "lng": 85.5295,
  "country": "India",
  "State": "Odisha",
  "value": "Banki"
 },
 {
  "label": "Banki",
  "lat": 26.1497,
  "lng": 86.3626,
  "country": "India",
  "State": "Bihar",
  "value": "Banki"
 },
 {
  "label": "Bankra",
  "lat": 22.63,
  "lng": 88.3,
  "country": "India",
  "State": "West Bengal",
  "value": "Bankra"
 },
 {
  "label": "Bankura",
  "lat": 23.25,
  "lng": 87.07,
  "country": "India",
  "State": "West Bengal",
  "value": "Bankura"
 },
 {
  "label": "Banni",
  "lat": 25.4692,
  "lng": 86.6068,
  "country": "India",
  "State": "Bihar",
  "value": "Banni"
 },
 {
  "label": "Bannur",
  "lat": 12.3329,
  "lng": 76.862,
  "country": "India",
  "State": "Karnataka",
  "value": "Bannur"
 },
 {
  "label": "Bansbari",
  "lat": 26.1934,
  "lng": 87.4498,
  "country": "India",
  "State": "Bihar",
  "value": "Bansbari"
 },
 {
  "label": "Bansbaria",
  "lat": 22.97,
  "lng": 88.4,
  "country": "India",
  "State": "West Bengal",
  "value": "Bansbaria"
 },
 {
  "label": "Banswada",
  "lat": 18.3833,
  "lng": 77.8833,
  "country": "India",
  "State": "Telangana",
  "value": "Banswada"
 },
 {
  "label": "Banta",
  "lat": 24.2323,
  "lng": 87.8749,
  "country": "India",
  "State": "West Bengal",
  "value": "Banta"
 },
 {
  "label": "Bantval",
  "lat": 12.8905,
  "lng": 75.0349,
  "country": "India",
  "State": "Karnataka",
  "value": "Bantval"
 },
 {
  "label": "Banu Chhapra",
  "lat": 26.8098,
  "lng": 84.5201,
  "country": "India",
  "State": "Bihar",
  "value": "Banu Chhapra"
 },
 {
  "label": "Bapatla",
  "lat": 15.9044,
  "lng": 80.4675,
  "country": "India",
  "State": "Andhra Pradesh",
  "value": "Bapatla"
 },
 {
  "label": "Bapaura",
  "lat": 28.815,
  "lng": 76.063,
  "country": "India",
  "State": "Haryana",
  "value": "Bapaura"
 },
 {
  "label": "Baqiabad",
  "lat": 25.1,
  "lng": 82.9,
  "country": "India",
  "State": "Uttar Pradesh",
  "value": "Baqiabad"
 },
 {
  "label": "Bar Bigha",
  "lat": 25.2186,
  "lng": 85.7332,
  "country": "India",
  "State": "Bihar",
  "value": "Bar Bigha"
 },
 {
  "label": "Bara",
  "lat": 24.3146,
  "lng": 87.9643,
  "country": "India",
  "State": "West Bengal",
  "value": "Bara"
 },
 {
  "label": "Bara",
  "lat": 25.9286,
  "lng": 86.5237,
  "country": "India",
  "State": "Bihar",
  "value": "Bara"
 },
 {
  "label": "Bara Belun",
  "lat": 23.4007,
  "lng": 87.9733,
  "country": "India",
  "State": "West Bengal",
  "value": "Bara Belun"
 },
 {
  "label": "Bara Khurd",
  "lat": 25.2599,
  "lng": 85.4325,
  "country": "India",
  "State": "Bihar",
  "value": "Bara Khurd"
 },
 {
  "label": "Bara Malehra",
  "lat": 24.5681,
  "lng": 79.3069,
  "country": "India",
  "State": "Madhya Pradesh",
  "value": "Bara Malehra"
 },
 {
  "label": "Baragaon",
  "lat": 25.1348,
  "lng": 85.432,
  "country": "India",
  "State": "Bihar",
  "value": "Baragaon"
 },
 {
  "label": "Baragaon",
  "lat": 24.5682,
  "lng": 79.0185,
  "country": "India",
  "State": "Madhya Pradesh",
  "value": "Baragaon"
 },
 {
  "label": "Barah",
  "lat": 25.3885,
  "lng": 85.4912,
  "country": "India",
  "State": "Bihar",
  "value": "Barah"
 },
 {
  "label": "Barahari",
  "lat": 25.7652,
  "lng": 87.0937,
  "country": "India",
  "State": "Bihar",
  "value": "Barahari"
 },
 {
  "label": "Barahbatta",
  "lat": 25.7727,
  "lng": 85.7522,
  "country": "India",
  "State": "Bihar",
  "value": "Barahbatta"
 },
 {
  "label": "Barahi",
  "lat": 25.9725,
  "lng": 86.7452,
  "country": "India",
  "State": "Bihar",
  "value": "Barahi"
 },
 {
  "label": "Barahkurwa",
  "lat": 26.146,
  "lng": 86.9237,
  "country": "India",
  "State": "Bihar",
  "value": "Barahkurwa"
 },
 {
  "label": "Barahpur",
  "lat": 25.4192,
  "lng": 85.8762,
  "country": "India",
  "State": "Bihar",
  "value": "Barahpur"
 },
 {
  "label": "Barahra",
  "lat": 26.2356,
  "lng": 86.5615,
  "country": "India",
  "State": "Bihar",
  "value": "Barahra"
 },
 {
  "label": "Barai",
  "lat": 26.3717,
  "lng": 86.0134,
  "country": "India",
  "State": "Bihar",
  "value": "Barai"
 },
 {
  "label": "Baraidih",
  "lat": 25.9798,
  "lng": 86.1434,
  "country": "India",
  "State": "Bihar",
  "value": "Baraidih"
 },
 {
  "label": "Barajor",
  "lat": 24.7992,
  "lng": 86.3731,
  "country": "India",
  "State": "Bihar",
  "value": "Barajor"
 },
 {
  "label": "Barakpur",
  "lat": 22.76,
  "lng": 88.37,
  "country": "India",
  "State": "West Bengal",
  "value": "Barakpur"
 },
 {
  "label": "Baramati",
  "lat": 18.15,
  "lng": 74.58,
  "country": "India",
  "State": "Maharashtra",
  "value": "Baramati"
 },
 {
  "label": "Baramula",
  "lat": 34.198,
  "lng": 74.364,
  "country": "India",
  "State": "Jammu and Kashmir",
  "value": "Baramula"
 },
 {
  "label": "Baraon",
  "lat": 25.4551,
  "lng": 84.2661,
  "country": "India",
  "State": "Bihar",
  "value": "Baraon"
 },
 {
  "label": "Bararam",
  "lat": 26.1572,
  "lng": 84.3627,
  "country": "India",
  "State": "Bihar",
  "value": "Bararam"
 },
 {
  "label": "Barari",
  "lat": 25.5068,
  "lng": 87.3761,
  "country": "India",
  "State": "Bihar",
  "value": "Barari"
 },
 {
  "label": "Barasat",
  "lat": 22.72,
  "lng": 88.48,
  "country": "India",
  "State": "West Bengal",
  "value": "Barasat"
 },
 {
  "label": "Barauli",
  "lat": 26.3815,
  "lng": 84.5872,
  "country": "India",
  "State": "Bihar",
  "value": "Barauli"
 },
 {
  "label": "Barbana",
  "lat": 26.0719,
  "lng": 87.2539,
  "country": "India",
  "State": "Bihar",
  "value": "Barbana"
 },
 {
  "label": "Barddhaman",
  "lat": 23.2333,
  "lng": 87.8667,
  "country": "India",
  "State": "West Bengal",
  "value": "Barddhaman"
 },
 {
  "label": "Bardiha Turki",
  "lat": 25.8059,
  "lng": 85.5441,
  "country": "India",
  "State": "Bihar",
  "value": "Bardiha Turki"
 },
 {
  "label": "Bardipuram",
  "lat": 18.6431,
  "lng": 78.1584,
  "country": "India",
  "State": "Telangana",
  "value": "Bardipuram"
 },
 {
  "label": "Bardoli",
  "lat": 21.12,
  "lng": 73.12,
  "country": "India",
  "State": "Gujarat",
  "value": "Bardoli"
 },
 {
  "label": "Bareh",
  "lat": 26.6786,
  "lng": 78.1887,
  "country": "India",
  "State": "Madhya Pradesh",
  "value": "Bareh"
 },
 {
  "label": "Bareilly",
  "lat": 28.364,
  "lng": 79.415,
  "country": "India",
  "State": "Uttar Pradesh",
  "value": "Bareilly"
 },
 {
  "label": "Bareja",
  "lat": 22.85,
  "lng": 72.5833,
  "country": "India",
  "State": "Gujarat",
  "value": "Bareja"
 },
 {
  "label": "Barela",
  "lat": 23.0968,
  "lng": 80.0508,
  "country": "India",
  "State": "Madhya Pradesh",
  "value": "Barela"
 },
 {
  "label": "Baretha",
  "lat": 25.5258,
  "lng": 87.4485,
  "country": "India",
  "State": "Bihar",
  "value": "Baretha"
 },
 {
  "label": "Bargaon",
  "lat": 25.3455,
  "lng": 84.6607,
  "country": "India",
  "State": "Bihar",
  "value": "Bargaon"
 },
 {
  "label": "Bargaon",
  "lat": 23.1795,
  "lng": 84.6991,
  "country": "India",
  "State": "Jharkhand",
  "value": "Bargaon"
 },
 {
  "label": "Bargarh",
  "lat": 21.3333,
  "lng": 83.6167,
  "country": "India",
  "State": "Odisha",
  "value": "Bargarh"
 },
 {
  "label": "Barghat",
  "lat": 22.0306,
  "lng": 79.7328,
  "country": "India",
  "State": "Madhya Pradesh",
  "value": "Barghat"
 },
 {
  "label": "Bargur",
  "lat": 12.5429,
  "lng": 78.3574,
  "country": "India",
  "State": "Tamil Nadu",
  "value": "Bargur"
 },
 {
  "label": "Barhagarh",
  "lat": 19.645,
  "lng": 84.4079,
  "country": "India",
  "State": "Odisha",
  "value": "Barhagarh"
 },
 {
  "label": "Barhampur",
  "lat": 26.3042,
  "lng": 86.4729,
  "country": "India",
  "State": "Bihar",
  "value": "Barhampur"
 },
 {
  "label": "Barhampur",
  "lat": 25.5976,
  "lng": 84.3011,
  "country": "India",
  "State": "Bihar",
  "value": "Barhampur"
 },
 {
  "label": "Barhampur",
  "lat": 26.3023,
  "lng": 85.7476,
  "country": "India",
  "State": "Bihar",
  "value": "Barhampur"
 },
 {
  "label": "Barhan",
  "lat": 27.3299,
  "lng": 78.1896,
  "country": "India",
  "State": "Uttar Pradesh",
  "value": "Barhan"
 },
 {
  "label": "Barharia",
  "lat": 26.3191,
  "lng": 84.4547,
  "country": "India",
  "State": "Bihar",
  "value": "Barharia"
 },
 {
  "label": "Barharwa",
  "lat": 24.8571,
  "lng": 87.779,
  "country": "India",
  "State": "Jharkhand",
  "value": "Barharwa"
 },
 {
  "label": "Barharwa Kalan",
  "lat": 26.5434,
  "lng": 84.8286,
  "country": "India",
  "State": "Bihar",
  "value": "Barharwa Kalan"
 },
 {
  "label": "Barhauna",
  "lat": 25.6043,
  "lng": 85.7288,
  "country": "India",
  "State": "Bihar",
  "value": "Barhauna"
 },
 {
  "label": "Barhauna",
  "lat": 25.304,
  "lng": 85.4216,
  "country": "India",
  "State": "Bihar",
  "value": "Barhauna"
 },
 {
  "label": "Barhi",
  "lat": 23.9033,
  "lng": 80.8152,
  "country": "India",
  "State": "Madhya Pradesh",
  "value": "Barhi"
 },
 {
  "label": "Barhi",
  "lat": 26.5714,
  "lng": 86.0903,
  "country": "India",
  "State": "Bihar",
  "value": "Barhi"
 },
 {
  "label": "Barhi",
  "lat": 26.4629,
  "lng": 86.2771,
  "country": "India",
  "State": "Bihar",
  "value": "Barhi"
 },
 {
  "label": "Barhi",
  "lat": 24.3045,
  "lng": 85.4195,
  "country": "India",
  "State": "Jharkhand",
  "value": "Barhi"
 },
 {
  "label": "Barhiya",
  "lat": 25.2833,
  "lng": 86.0333,
  "country": "India",
  "State": "Bihar",
  "value": "Barhiya"
 },
 {
  "label": "Barhni",
  "lat": 27.4972,
  "lng": 82.7861,
  "country": "India",
  "State": "Uttar Pradesh",
  "value": "Barhni"
 },
 {
  "label": "Bari",
  "lat": 26.63,
  "lng": 77.62,
  "country": "India",
  "State": "Rajasthan",
  "value": "Bari"
 },
 {
  "label": "Bari",
  "lat": 25.8769,
  "lng": 86.1918,
  "country": "India",
  "State": "Bihar",
  "value": "Bari"
 },
 {
  "label": "Bariariya",
  "lat": 26.5105,
  "lng": 84.7165,
  "country": "India",
  "State": "Bihar",
  "value": "Bariariya"
 },
 {
  "label": "Bariariya Tola Rajpur",
  "lat": 26.4567,
  "lng": 84.7043,
  "country": "India",
  "State": "Bihar",
  "value": "Bariariya Tola Rajpur"
 },
 {
  "label": "Bariarpur",
  "lat": 25.686,
  "lng": 86.0295,
  "country": "India",
  "State": "Bihar",
  "value": "Bariarpur"
 },
 {
  "label": "Bariarpur",
  "lat": 25.292,
  "lng": 86.571,
  "country": "India",
  "State": "Bihar",
  "value": "Bariarpur"
 },
 {
  "label": "Bariarpur Kandh",
  "lat": 25.9391,
  "lng": 85.4674,
  "country": "India",
  "State": "Bihar",
  "value": "Bariarpur Kandh"
 },
 {
  "label": "Barigarh",
  "lat": 25.2325,
  "lng": 80.0347,
  "country": "India",
  "State": "Madhya Pradesh",
  "value": "Barigarh"
 },
 {
  "label": "Baripada",
  "lat": 21.94,
  "lng": 86.72,
  "country": "India",
  "State": "Odisha",
  "value": "Baripada"
 },
 {
  "label": "Bariyarpur",
  "lat": 26.6347,
  "lng": 84.9245,
  "country": "India",
  "State": "Bihar",
  "value": "Bariyarpur"
 },
 {
  "label": "Barjhar",
  "lat": 22.6012,
  "lng": 74.2471,
  "country": "India",
  "State": "Gujarat",
  "value": "Barjhar"
 },
 {
  "label": "Barjora",
  "lat": 23.4333,
  "lng": 87.2833,
  "country": "India",
  "State": "West Bengal",
  "value": "Barjora"
 },
 {
  "label": "Barka Gaon",
  "lat": 26.144,
  "lng": 84.6598,
  "country": "India",
  "State": "Bihar",
  "value": "Barka Gaon"
 },
 {
  "label": "Barka Parbatta",
  "lat": 25.3396,
  "lng": 87.0576,
  "country": "India",
  "State": "Bihar",
  "value": "Barka Parbatta"
 },
 {
  "label": "Barkagaon",
  "lat": 23.8651,
  "lng": 85.2167,
  "country": "India",
  "State": "Jharkhand",
  "value": "Barkagaon"
 },
 {
  "label": "Barki Ballia",
  "lat": 25.4223,
  "lng": 86.2758,
  "country": "India",
  "State": "Bihar",
  "value": "Barki Ballia"
 },
 {
  "label": "Barki Saria",
  "lat": 24.1759,
  "lng": 85.8894,
  "country": "India",
  "State": "Jharkhand",
  "value": "Barki Saria"
 },
 {
  "label": "Barkot",
  "lat": 30.82,
  "lng": 78.2,
  "country": "India",
  "State": "Uttarakhand",
  "value": "Barkot"
 },
 {
  "label": "Barkuhi",
  "lat": 22.1901,
  "lng": 78.7047,
  "country": "India",
  "State": "Madhya Pradesh",
  "value": "Barkuhi"
 },
 {
  "label": "Barnagar",
  "lat": 23.0489,
  "lng": 75.378,
  "country": "India",
  "State": "Madhya Pradesh",
  "value": "Barnagar"
 },
 {
  "label": "Barnala",
  "lat": 30.37,
  "lng": 75.54,
  "country": "India",
  "State": "Punjab",
  "value": "Barnala"
 },
 {
  "label": "Barnaon",
  "lat": 25.4809,
  "lng": 84.525,
  "country": "India",
  "State": "Bihar",
  "value": "Barnaon"
 },
 {
  "label": "Barni",
  "lat": 25.3484,
  "lng": 85.0594,
  "country": "India",
  "State": "Bihar",
  "value": "Barni"
 },
 {
  "label": "Barnia",
  "lat": 23.7311,
  "lng": 88.4329,
  "country": "India",
  "State": "West Bengal",
  "value": "Barnia"
 },
 {
  "label": "Barnoi",
  "lat": 32.43,
  "lng": 75.43,
  "country": "India",
  "State": "Jammu and Kashmir",
  "value": "Barnoi"
 },
 {
  "label": "Baro",
  "lat": 25.4487,
  "lng": 85.9924,
  "country": "India",
  "State": "Bihar",
  "value": "Baro"
 },
 {
  "label": "Barod",
  "lat": 27.8947,
  "lng": 76.3681,
  "country": "India",
  "State": "Rajasthan",
  "value": "Barod"
 },
 {
  "label": "Barod",
  "lat": 23.7889,
  "lng": 75.8116,
  "country": "India",
  "State": "Madhya Pradesh",
  "value": "Barod"
 },
 {
  "label": "Baroda",
  "lat": 25.5,
  "lng": 76.65,
  "country": "India",
  "State": "Madhya Pradesh",
  "value": "Baroda"
 },
 {
  "label": "Barokhar",
  "lat": 24.9167,
  "lng": 81.9667,
  "country": "India",
  "State": "Uttar Pradesh",
  "value": "Barokhar"
 },
 {
  "label": "Baroni Khurd",
  "lat": 25.6852,
  "lng": 78.3746,
  "country": "India",
  "State": "Madhya Pradesh",
  "value": "Baroni Khurd"
 },
 {
  "label": "Barpathar",
  "lat": 26.2871,
  "lng": 93.8884,
  "country": "India",
  "State": "Assam",
  "value": "Barpathar"
 },
 {
  "label": "Barpeta",
  "lat": 26.32,
  "lng": 91,
  "country": "India",
  "State": "Assam",
  "value": "Barpeta"
 },
 {
  "label": "Barsaun",
  "lat": 25.6316,
  "lng": 84.4372,
  "country": "India",
  "State": "Bihar",
  "value": "Barsaun"
 },
 {
  "label": "Baruari",
  "lat": 26.0305,
  "lng": 86.5965,
  "country": "India",
  "State": "Bihar",
  "value": "Baruari"
 },
 {
  "label": "Barud",
  "lat": 21.7497,
  "lng": 75.527,
  "country": "India",
  "State": "Madhya Pradesh",
  "value": "Barud"
 },
 {
  "label": "Barughutu",
  "lat": 23.8038,
  "lng": 85.5555,
  "country": "India",
  "State": "Jharkhand",
  "value": "Barughutu"
 },
 {
  "label": "Baruipur",
  "lat": 22.3654,
  "lng": 88.4325,
  "country": "India",
  "State": "West Bengal",
  "value": "Baruipur"
 },
 {
  "label": "Barun",
  "lat": 24.8602,
  "lng": 84.2232,
  "country": "India",
  "State": "Bihar",
  "value": "Barun"
 },
 {
  "label": "Baruni",
  "lat": 25.4751,
  "lng": 85.9681,
  "country": "India",
  "State": "Bihar",
  "value": "Baruni"
 },
 {
  "label": "Barvala",
  "lat": 22.15,
  "lng": 71.9,
  "country": "India",
  "State": "Gujarat",
  "value": "Barvala"
 },
 {
  "label": "Barwa Sagar",
  "lat": 25.3799,
  "lng": 78.739,
  "country": "India",
  "State": "Uttar Pradesh",
  "value": "Barwa Sagar"
 },
 {
  "label": "Barwadih",
  "lat": 23.8478,
  "lng": 84.1105,
  "country": "India",
  "State": "Jharkhand",
  "value": "Barwadih"
 },
 {
  "label": "Barwah",
  "lat": 22.2539,
  "lng": 76.0385,
  "country": "India",
  "State": "Madhya Pradesh",
  "value": "Barwah"
 },
 {
  "label": "Barwan",
  "lat": 23.9379,
  "lng": 87.935,
  "country": "India",
  "State": "West Bengal",
  "value": "Barwan"
 },
 {
  "label": "Barwani",
  "lat": 22.03,
  "lng": 74.9,
  "country": "India",
  "State": "Madhya Pradesh",
  "value": "Barwani"
 },
 {
  "label": "Barwat Pasrain",
  "lat": 26.7925,
  "lng": 84.5469,
  "country": "India",
  "State": "Bihar",
  "value": "Barwat Pasrain"
 },
 {
  "label": "Basaha",
  "lat": 26.1329,
  "lng": 86.748,
  "country": "India",
  "State": "Bihar",
  "value": "Basaha"
 },
 {
  "label": "Basaithi",
  "lat": 26.0284,
  "lng": 87.3329,
  "country": "India",
  "State": "Bihar",
  "value": "Basaithi"
 },
 {
  "label": "Basantpur",
  "lat": 26.1331,
  "lng": 87.4656,
  "country": "India",
  "State": "Bihar",
  "value": "Basantpur"
 },
 {
  "label": "Basaon",
  "lat": 26.2082,
  "lng": 84.6174,
  "country": "India",
  "State": "Bihar",
  "value": "Basaon"
 },
 {
  "label": "Basapatna",
  "lat": 15.4302,
  "lng": 76.4869,
  "country": "India",
  "State": "Karnataka",
  "value": "Basapatna"
 },
 {
  "label": "Basarh",
  "lat": 25.9808,
  "lng": 85.1285,
  "country": "India",
  "State": "Bihar",
  "value": "Basarh"
 },
 {
  "label": "Basatpur",
  "lat": 26.0011,
  "lng": 85.0643,
  "country": "India",
  "State": "Bihar",
  "value": "Basatpur"
 },
 {
  "label": "Basavakalyan",
  "lat": 17.8728,
  "lng": 76.9497,
  "country": "India",
  "State": "Karnataka",
  "value": "Basavakalyan"
 },
 {
  "label": "Basavana Bagevadi",
  "lat": 16.5728,
  "lng": 75.9725,
  "country": "India",
  "State": "Karnataka",
  "value": "Basavana Bagevadi"
 },
 {
  "label": "Basbiti",
  "lat": 26.0939,
  "lng": 86.5289,
  "country": "India",
  "State": "Bihar",
  "value": "Basbiti"
 },
 {
  "label": "Basdeopur",
  "lat": 25.3909,
  "lng": 86.6821,
  "country": "India",
  "State": "Bihar",
  "value": "Basdeopur"
 },
 {
  "label": "Basi",
  "lat": 30.5872,
  "lng": 76.8428,
  "country": "India",
  "State": "Punjab",
  "value": "Basi"
 },
 {
  "label": "Basirhat",
  "lat": 22.6572,
  "lng": 88.8942,
  "country": "India",
  "State": "West Bengal",
  "value": "Basirhat"
 },
 {
  "label": "Basmanpur",
  "lat": 26.6433,
  "lng": 84.9789,
  "country": "India",
  "State": "Bihar",
  "value": "Basmanpur"
 },
 {
  "label": "Basni",
  "lat": 25.4435,
  "lng": 82.8291,
  "country": "India",
  "State": "Uttar Pradesh",
  "value": "Basni"
 },
 {
  "label": "Basoda",
  "lat": 23.8515,
  "lng": 77.9365,
  "country": "India",
  "State": "Madhya Pradesh",
  "value": "Basoda"
 },
 {
  "label": "Basopatti",
  "lat": 26.578,
  "lng": 86.0052,
  "country": "India",
  "State": "Bihar",
  "value": "Basopatti"
 },
 {
  "label": "Basrur",
  "lat": 13.6308,
  "lng": 74.7377,
  "country": "India",
  "State": "Karnataka",
  "value": "Basrur"
 },
 {
  "label": "Bassian",
  "lat": 30.6559,
  "lng": 75.5389,
  "country": "India",
  "State": "Punjab",
  "value": "Bassian"
 },
 {
  "label": "Basudebpur",
  "lat": 21.1197,
  "lng": 86.729,
  "country": "India",
  "State": "Odisha",
  "value": "Basudebpur"
 },
 {
  "label": "Basudebpur",
  "lat": 21.8256,
  "lng": 87.619,
  "country": "India",
  "State": "West Bengal",
  "value": "Basudebpur"
 },
 {
  "label": "Batala",
  "lat": 31.8186,
  "lng": 75.2028,
  "country": "India",
  "State": "Punjab",
  "value": "Batala"
 },
 {
  "label": "Bataredh",
  "lat": 26.425,
  "lng": 84.6061,
  "country": "India",
  "State": "Bihar",
  "value": "Bataredh"
 },
 {
  "label": "Bathnaha",
  "lat": 26.6433,
  "lng": 85.5747,
  "country": "India",
  "State": "Bihar",
  "value": "Bathnaha"
 },
 {
  "label": "Battulapalle",
  "lat": 14.5167,
  "lng": 77.7833,
  "country": "India",
  "State": "Andhra Pradesh",
  "value": "Battulapalle"
 },
 {
  "label": "Baturbari",
  "lat": 26.2281,
  "lng": 87.4714,
  "country": "India",
  "State": "Bihar",
  "value": "Baturbari"
 },
 {
  "label": "Baud",
  "lat": 20.84,
  "lng": 84.32,
  "country": "India",
  "State": "Odisha",
  "value": "Baud"
 },
 {
  "label": "Baulia",
  "lat": 25.399,
  "lng": 87.6002,
  "country": "India",
  "State": "Bihar",
  "value": "Baulia"
 },
 {
  "label": "Bauria",
  "lat": 22.4521,
  "lng": 88.1853,
  "country": "India",
  "State": "West Bengal",
  "value": "Bauria"
 },
 {
  "label": "Bawali",
  "lat": 22.4041,
  "lng": 88.1852,
  "country": "India",
  "State": "West Bengal",
  "value": "Bawali"
 },
 {
  "label": "Bawana",
  "lat": 28.762,
  "lng": 77.063,
  "country": "India",
  "State": "Delhi",
  "value": "Bawana"
 },
 {
  "label": "Bayaram",
  "lat": 18.0506,
  "lng": 80.7375,
  "country": "India",
  "State": "Telangana",
  "value": "Bayaram"
 },
 {
  "label": "Baynala",
  "lat": 22.4835,
  "lng": 88.4997,
  "country": "India",
  "State": "West Bengal",
  "value": "Baynala"
 },
 {
  "label": "Bayyanagudem",
  "lat": 17.125,
  "lng": 81.3628,
  "country": "India",
  "State": "Andhra Pradesh",
  "value": "Bayyanagudem"
 },
 {
  "label": "Bayyavaram",
  "lat": 17.6638,
  "lng": 82.942,
  "country": "India",
  "State": "Andhra Pradesh",
  "value": "Bayyavaram"
 },
 {
  "label": "Bazid Chak Kasturi",
  "lat": 25.6559,
  "lng": 85.4412,
  "country": "India",
  "State": "Bihar",
  "value": "Bazid Chak Kasturi"
 },
 {
  "label": "Bazidpur",
  "lat": 26.1536,
  "lng": 86.1511,
  "country": "India",
  "State": "Bihar",
  "value": "Bazidpur"
 },
 {
  "label": "Bazidpur Madhaul",
  "lat": 25.5236,
  "lng": 85.4572,
  "country": "India",
  "State": "Bihar",
  "value": "Bazidpur Madhaul"
 },
 {
  "label": "Beawar",
  "lat": 26.1,
  "lng": 74.32,
  "country": "India",
  "State": "Rajasthan",
  "value": "Beawar"
 },
 {
  "label": "Begamganj",
  "lat": 23.5992,
  "lng": 78.3406,
  "country": "India",
  "State": "Madhya Pradesh",
  "value": "Begamganj"
 },
 {
  "label": "Begampur",
  "lat": 22.3705,
  "lng": 88.494,
  "country": "India",
  "State": "West Bengal",
  "value": "Begampur"
 },
 {
  "label": "Begampur",
  "lat": 22.7368,
  "lng": 88.2518,
  "country": "India",
  "State": "West Bengal",
  "value": "Begampur"
 },
 {
  "label": "Begowal",
  "lat": 31.6125,
  "lng": 75.5194,
  "country": "India",
  "State": "Punjab",
  "value": "Begowal"
 },
 {
  "label": "Begusarai",
  "lat": 25.42,
  "lng": 86.13,
  "country": "India",
  "State": "Bihar",
  "value": "Begusarai"
 },
 {
  "label": "Behat",
  "lat": 26.2435,
  "lng": 86.2799,
  "country": "India",
  "State": "Bihar",
  "value": "Behat"
 },
 {
  "label": "Behror",
  "lat": 27.8903,
  "lng": 76.2861,
  "country": "India",
  "State": "Rajasthan",
  "value": "Behror"
 },
 {
  "label": "Beko",
  "lat": 24.0415,
  "lng": 85.9536,
  "country": "India",
  "State": "Jharkhand",
  "value": "Beko"
 },
 {
  "label": "Bela",
  "lat": 25.8103,
  "lng": 85.0157,
  "country": "India",
  "State": "Bihar",
  "value": "Bela"
 },
 {
  "label": "Bela",
  "lat": 26.4989,
  "lng": 86.3242,
  "country": "India",
  "State": "Bihar",
  "value": "Bela"
 },
 {
  "label": "Bela",
  "lat": 24.9689,
  "lng": 84.974,
  "country": "India",
  "State": "Bihar",
  "value": "Bela"
 },
 {
  "label": "Bela Simri",
  "lat": 25.5295,
  "lng": 86.3079,
  "country": "India",
  "State": "Bihar",
  "value": "Bela Simri"
 },
 {
  "label": "Beladi",
  "lat": 13.1464,
  "lng": 74.9399,
  "country": "India",
  "State": "Karnataka",
  "value": "Beladi"
 },
 {
  "label": "Belagal",
  "lat": 15.8183,
  "lng": 77.6702,
  "country": "India",
  "State": "Andhra Pradesh",
  "value": "Belagal"
 },
 {
  "label": "Belagola",
  "lat": 13.3833,
  "lng": 75.5833,
  "country": "India",
  "State": "Karnataka",
  "value": "Belagola"
 },
 {
  "label": "Belakoba",
  "lat": 26.59,
  "lng": 88.589,
  "country": "India",
  "State": "West Bengal",
  "value": "Belakoba"
 },
 {
  "label": "Belakvadi",
  "lat": 12.255,
  "lng": 77.1225,
  "country": "India",
  "State": "Karnataka",
  "value": "Belakvadi"
 },
 {
  "label": "Belampalli",
  "lat": 19.0756,
  "lng": 79.4881,
  "country": "India",
  "State": "Telangana",
  "value": "Belampalli"
 },
 {
  "label": "Belao",
  "lat": 25.1476,
  "lng": 85.7377,
  "country": "India",
  "State": "Bihar",
  "value": "Belao"
 },
 {
  "label": "Belari",
  "lat": 25.9655,
  "lng": 86.9161,
  "country": "India",
  "State": "Bihar",
  "value": "Belari"
 },
 {
  "label": "Belauncha",
  "lat": 26.2124,
  "lng": 86.3554,
  "country": "India",
  "State": "Bihar",
  "value": "Belauncha"
 },
 {
  "label": "Belaur",
  "lat": 25.4477,
  "lng": 84.6473,
  "country": "India",
  "State": "Bihar",
  "value": "Belaur"
 },
 {
  "label": "Beldanga",
  "lat": 23.93,
  "lng": 88.25,
  "country": "India",
  "State": "West Bengal",
  "value": "Beldanga"
 },
 {
  "label": "Beldanga",
  "lat": 24.7041,
  "lng": 87.873,
  "country": "India",
  "State": "Jharkhand",
  "value": "Beldanga"
 },
 {
  "label": "Beldaur",
  "lat": 25.5947,
  "lng": 86.7909,
  "country": "India",
  "State": "Bihar",
  "value": "Beldaur"
 },
 {
  "label": "Belgaum",
  "lat": 15.85,
  "lng": 74.5,
  "country": "India",
  "State": "Karnataka",
  "value": "Belgaum"
 },
 {
  "label": "Belhatti",
  "lat": 15.0818,
  "lng": 75.6465,
  "country": "India",
  "State": "Karnataka",
  "value": "Belhatti"
 },
 {
  "label": "Belhi",
  "lat": 26.5769,
  "lng": 86.1723,
  "country": "India",
  "State": "Bihar",
  "value": "Belhi"
 },
 {
  "label": "Bellamkonda",
  "lat": 16.4922,
  "lng": 80.0089,
  "country": "India",
  "State": "Andhra Pradesh",
  "value": "Bellamkonda"
 },
 {
  "label": "Bellary",
  "lat": 15.1,
  "lng": 76.9167,
  "country": "India",
  "State": "Karnataka",
  "value": "Bellary"
 },
 {
  "label": "Bellatti",
  "lat": 12.65,
  "lng": 78,
  "country": "India",
  "State": "Tamil Nadu",
  "value": "Bellatti"
 },
 {
  "label": "Belma",
  "lat": 12.87,
  "lng": 74.84,
  "country": "India",
  "State": "Karnataka",
  "value": "Belma"
 },
 {
  "label": "Belo",
  "lat": 25.8747,
  "lng": 86.8855,
  "country": "India",
  "State": "Bihar",
  "value": "Belo"
 },
 {
  "label": "Belonia",
  "lat": 23.25,
  "lng": 91.45,
  "country": "India",
  "State": "Tripura",
  "value": "Belonia"
 },
 {
  "label": "Belpara",
  "lat": 20.5889,
  "lng": 82.9729,
  "country": "India",
  "State": "Odisha",
  "value": "Belpara"
 },
 {
  "label": "Belpukur",
  "lat": 21.9851,
  "lng": 88.2125,
  "country": "India",
  "State": "West Bengal",
  "value": "Belpukur"
 },
 {
  "label": "Belsand",
  "lat": 26.4436,
  "lng": 85.4008,
  "country": "India",
  "State": "Bihar",
  "value": "Belsand"
 },
 {
  "label": "Belsandi Tara",
  "lat": 25.7722,
  "lng": 85.9608,
  "country": "India",
  "State": "Bihar",
  "value": "Belsandi Tara"
 },
 {
  "label": "Belsara",
  "lat": 26.0152,
  "lng": 87.2023,
  "country": "India",
  "State": "Bihar",
  "value": "Belsara"
 },
 {
  "label": "Beltangadi",
  "lat": 12.9795,
  "lng": 75.2699,
  "country": "India",
  "State": "Karnataka",
  "value": "Beltangadi"
 },
 {
  "label": "Belur",
  "lat": 13.1629,
  "lng": 75.8571,
  "country": "India",
  "State": "Karnataka",
  "value": "Belur"
 },
 {
  "label": "Belur",
  "lat": 11.7075,
  "lng": 78.4144,
  "country": "India",
  "State": "Tamil Nadu",
  "value": "Belur"
 },
 {
  "label": "Belwa",
  "lat": 26.1056,
  "lng": 87.4916,
  "country": "India",
  "State": "Bihar",
  "value": "Belwa"
 },
 {
  "label": "Belwara",
  "lat": 25.7443,
  "lng": 86.4755,
  "country": "India",
  "State": "Bihar",
  "value": "Belwara"
 },
 {
  "label": "Benaulim",
  "lat": 15.27,
  "lng": 73.9346,
  "country": "India",
  "State": "Goa",
  "value": "Benaulim"
 },
 {
  "label": "Bendapudi",
  "lat": 17.2673,
  "lng": 82.3758,
  "country": "India",
  "State": "Andhra Pradesh",
  "value": "Bendapudi"
 },
 {
  "label": "Bendarhalli",
  "lat": 12.15,
  "lng": 77.1,
  "country": "India",
  "State": "Karnataka",
  "value": "Bendarhalli"
 },
 {
  "label": "Bendrahalli",
  "lat": 12.2642,
  "lng": 78.3223,
  "country": "India",
  "State": "Tamil Nadu",
  "value": "Bendrahalli"
 },
 {
  "label": "Benipati",
  "lat": 26.4442,
  "lng": 85.9083,
  "country": "India",
  "State": "Bihar",
  "value": "Benipati"
 },
 {
  "label": "Beohari",
  "lat": 24.0242,
  "lng": 81.3783,
  "country": "India",
  "State": "Madhya Pradesh",
  "value": "Beohari"
 },
 {
  "label": "Berchha",
  "lat": 23.2823,
  "lng": 76.3199,
  "country": "India",
  "State": "Madhya Pradesh",
  "value": "Berchha"
 },
 {
  "label": "Brikai",
  "lat": 12.8056,
  "lng": 77.971,
  "country": "India",
  "State": "Tamil Nadu",
  "value": "Brikai"
 },
 {
  "label": "Bermo",
  "lat": 23.7878,
  "lng": 85.9353,
  "country": "India",
  "State": "Jharkhand",
  "value": "Bermo"
 },